,housing_units,housing_density,change_hunits,percent_of_rent_to_total,owned_homes,med_homeval,med_rental_rate,med_owner_cost,med_own_cost_aspercentof_income,med_hval_aspercentof_medearn,med_hcost_ownmortg,med_hcost_own_wo_mortg,hcost_aspercentof_hincome_ownmortg,hcost_as_perc_of_hincome_womortg,med_real_estate_taxes,family_members_per_hunit,median_num_ofrooms,median_year_house_built,household_size_of_howners,household_size_for_renters,med_year_moved_in_for_owners,med_year_renter_moved_in,studio_1000_1499,studio_1500_more,studio_750_999,onebed_1000_1499,onebed_1500_more,onebed_750_999,twobed_1000_1499,twobed_1500_more,twobed_750_999,threebed_1000_1499,threebed_1500_more,threebed_750_999,city,Latitude,Longitude,population,area_total_sq_mi
0,8751.0,156.2,-3.7,50.7,49.3,151600.0,1059.0,1093.0,24.0,427.0,1260.0,406.0,28.0,15.0,1766.0,4.4,5.5,1997.0,3.7,4.1,2007.0,2013.0,0.0,0.0,0.379,0.003,0.032,0.096,0.131,0.032,0.508,0.583,0.13699999999999998,0.18100000000000002,Adelanto,34.582769,-117.40921399999999,32867.0,56.027
1,7674.0,984.7,1.2,25.6,74.4,745000.0,2261.0,2488.0,23.0,928.0,2943.0,844.0,26.0,10.0,5345.0,3.3,6.5,1980.0,2.8,2.8,2001.0,2012.0,0.0,1.0,0.0,0.105,0.895,0.0,0.064,0.899,0.038,0.0,0.9620000000000001,0.0,AgouraHills,34.153339,-118.761675,20736.0,7.822
2,32414.0,3104.1,0.2,53.0,47.0,729100.0,1607.0,2259.0,21.0,1006.0,2833.0,679.0,24.0,10.0,6036.0,3.2,4.8,1962.0,2.7,2.4,2000.0,2011.0,0.397,0.312,0.142,0.461,0.39399999999999996,0.057999999999999996,0.261,0.633,0.019,0.11900000000000001,0.667,0.036000000000000004,Alameda,37.765206,-122.24163600000001,78246.0,22.96
3,7724.0,4319.4,-2.1,52.4,47.6,766000.0,1739.0,2501.0,21.0,991.0,3014.0,694.0,23.0,13.0,6975.0,3.2,4.5,1952.0,2.8,2.5,2002.0,2012.0,0.313,0.583,0.10400000000000001,0.5579999999999999,0.341,0.031,0.138,0.821,0.012,0.084,0.8490000000000001,0.0,Albany,37.886869,-122.297747,19682.0,5.465
4,30990.0,4061.1,0.2,59.7,40.3,553800.0,1286.0,1629.0,22.0,1296.0,2256.0,508.0,27.0,12.0,3953.0,3.5,4.0,1958.0,3.0,2.8,2000.0,2011.0,0.43200000000000005,0.042,0.29100000000000004,0.568,0.051,0.24,0.575,0.312,0.054000000000000006,0.18,0.629,0.039,Alhambra,34.095286,-118.12701399999999,85168.0,7.6320000000000014
5,19786.0,2859.5,4.9,39.8,60.2,582300.0,2092.0,2559.0,23.0,752.0,2699.0,743.0,25.0,10.0,4975.0,3.3,5.1,1994.0,2.8,2.5,2005.0,2012.0,0.121,0.626,0.0,0.094,0.85,0.013000000000000001,0.083,0.836,0.028999999999999998,0.044000000000000004,0.934,0.005,AlisoViejo,33.575,-117.72555600000001,50691.0,7.472
6,1526.0,626.8,8.5,38.0,62.0,93300.0,759.0,657.0,23.0,287.0,850.0,376.0,42.0,12.0,951.0,2.8,5.1,1957.0,2.1,1.6,1999.0,2011.0,,,0.0,,,0.0,,,0.442,,,0.9279999999999999,Alturas,41.487114,-120.542456,2613.0,2.449
7,123.0,392.0,13.9,54.7,45.3,275000.0,839.0,1175.0,17.0,653.0,1363.0,500.0,18.0,14.0,1442.0,2.8,4.8,1958.0,1.5,2.1,1997.0,2011.0,0.0,0.0,0.0,0.0,0.0,0.643,1.0,0.0,0.0,0.14300000000000002,0.321,0.0,AmadorCity,38.419356,-120.82410300000001,148.0,0.314
8,5666.0,931.8,-5.3,21.5,78.5,418600.0,1762.0,1911.0,22.0,763.0,2320.0,498.0,25.0,10.0,3680.0,4.1,6.2,1999.0,3.7,3.7,2006.0,2012.0,0.0,0.0,0.0,0.23800000000000002,0.5,0.025,0.19,0.43799999999999994,0.22899999999999998,0.11900000000000001,0.8240000000000001,0.023,AmericanCanyon,38.174917,-122.26080300000001,20341.0,4.845
9,104533.0,2091.7,0.3,55.1,44.9,491400.0,1469.0,1934.0,23.0,1209.0,2305.0,537.0,27.0,10.0,3563.0,4.1,4.7,1972.0,3.5,3.4,2001.0,2012.0,0.493,0.258,0.10300000000000001,0.599,0.19899999999999998,0.092,0.392,0.536,0.024,0.135,0.774,0.021,Anaheim,33.835291999999995,-117.914503,349007.0,50.81100000000001
10,4183.0,656.5,-0.7,49.8,50.2,174000.0,804.0,1023.0,23.0,538.0,1175.0,359.0,25.0,13.0,1460.0,3.5,5.0,1976.0,2.7,2.5,2006.0,,0.0,0.0,0.0,0.0,0.0,0.135,0.316,0.011000000000000001,0.271,0.515,0.066,0.27,Anderson,40.448208,-122.29778300000001,10176.0,6.62
11,1980.0,545.7,1.9,38.8,61.2,260800.0,831.0,1285.0,21.0,537.0,1739.0,537.0,26.0,15.0,2034.0,3.0,5.0,1984.0,2.1,2.1,2004.0,2011.0,0.0,0.0,0.0,0.0,0.0,0.38299999999999995,0.08199999999999999,0.225,0.198,0.652,0.252,0.0,Angels,38.067783,-120.538531,3760.0,
12,35721.0,1215.1,2.5,39.2,60.8,330900.0,1562.0,1762.0,23.0,661.0,2013.0,488.0,26.0,10.0,3157.0,3.8,6.0,1984.0,3.2,3.3,2004.0,2012.0,0.079,0.086,0.40299999999999997,0.363,0.175,0.18600000000000003,0.484,0.23800000000000002,0.154,0.11199999999999999,0.8170000000000001,0.019,Antioch,38.004922,-121.80578899999999,110026.0,29.083
13,21253.0,1945.3,2.7,39.8,60.2,994400.0,1481.0,2287.0,23.0,1598.0,3248.0,809.0,27.0,13.0,6663.0,3.4,5.5,1965.0,3.0,2.9,2001.0,2012.0,0.6829999999999999,0.146,0.139,0.743,0.055,0.12,0.462,0.48100000000000004,0.022000000000000002,0.075,0.79,0.0,Arcadia,34.139728000000005,-118.035344,58156.0,11.133
14,7919.0,871.0,2.6,62.7,37.3,335400.0,939.0,807.0,20.0,790.0,1509.0,456.0,26.0,12.0,1972.0,2.9,4.3,1972.0,2.2,2.3,1997.0,2013.0,0.0,0.0,0.42100000000000004,0.06,0.022000000000000002,0.461,0.496,0.106,0.285,0.087,0.725,0.045,Arcata,40.866517,-124.08283899999999,17814.0,10.994000000000002
15,7847.0,1345.3,2.9,30.2,69.8,510400.0,1169.0,1631.0,20.0,894.0,2147.0,505.0,23.0,11.0,3670.0,3.1,5.4,1979.0,2.5,2.3,2003.0,2012.0,0.0,0.27,0.73,0.43200000000000005,0.057,0.261,0.41600000000000004,0.22699999999999998,0.261,0.035,0.774,0.166,ArroyoGrande,35.118586,-120.590725,17971.0,5.835
16,4780.0,2949.4,1.8,49.4,50.6,437200.0,1471.0,1167.0,18.0,1093.0,1987.0,398.0,25.0,10.0,2844.0,4.2,5.0,1964.0,3.7,3.6,1996.0,2010.0,0.45299999999999996,0.47,0.077,0.529,0.301,0.152,0.563,0.342,0.055999999999999994,0.11900000000000001,0.696,0.009000000000000001,Artesia,33.865846999999995,-118.083122,16853.0,1.621
17,5010.0,1039.6,11.9,54.0,46.0,132300.0,836.0,962.0,22.0,608.0,1113.0,338.0,27.0,11.0,1831.0,4.7,5.0,1985.0,4.3,4.5,2003.0,2012.0,0.0,0.0,0.0,0.019,0.0,0.09,0.044000000000000004,0.036000000000000004,0.326,0.41700000000000004,0.031,0.371,Arvin,35.2018,-118.833106,20826.0,4.819
18,11792.0,452.1,2.5,37.5,62.5,433900.0,1289.0,1756.0,22.0,768.0,2069.0,514.0,25.0,10.0,3269.0,3.2,5.4,1980.0,2.6,2.5,2004.0,2012.0,0.0,0.27399999999999997,0.373,0.27899999999999997,0.013999999999999999,0.341,0.6629999999999999,0.147,0.11699999999999999,0.152,0.6920000000000001,0.048,Atascadero,35.489416999999996,-120.670725,29797.0,26.13
19,9354.0,1529.9,-4.3,49.3,50.7,179400.0,942.0,1078.0,20.0,505.0,1355.0,400.0,22.0,12.0,1455.0,3.9,5.4,1977.0,3.0,3.5,2005.0,2012.0,0.0,0.0,0.185,0.039,0.0,0.171,0.099,0.019,0.345,0.583,0.066,0.221,Atwater,37.347716999999996,-120.60908300000001,29118.0,6.096
20,6220.0,869.4,1.3,44.7,55.3,393500.0,1106.0,1585.0,23.0,871.0,2036.0,579.0,27.0,12.0,3257.0,3.0,5.3,1977.0,2.3,2.2,2002.0,,0.262,0.42700000000000005,0.252,0.24600000000000002,0.055,0.17800000000000002,0.574,0.081,0.27399999999999997,0.26899999999999996,0.485,0.065,Auburn,38.896564,-121.076889,13911.0,7.166
21,2339.0,120.4,-2.9,55.2,44.8,129900.0,744.0,734.0,16.0,447.0,795.0,331.0,26.0,10.0,972.0,4.5,4.6,1984.0,4.4,4.1,1998.0,2012.0,0.0,0.0,0.0,0.14,0.0,0.14,0.14800000000000002,0.009000000000000001,0.18,0.272,0.0,0.501,Avenal,36.004121999999995,-120.129028,13119.0,19.422
22,13576.0,1405.9,1.4,47.1,52.9,367500.0,1316.0,1598.0,24.0,997.0,1925.0,428.0,28.0,10.0,2715.0,4.1,4.6,1971.0,3.4,3.5,2003.0,2011.0,0.271,0.017,0.428,0.652,0.038,0.21600000000000003,0.634,0.231,0.042,0.136,0.609,0.063,Azusa,34.133619,-117.907564,49029.0,9.669
23,122829.0,826.2,1.7,43.0,57.0,228400.0,1035.0,1383.0,21.0,512.0,1614.0,469.0,23.0,10.0,2554.0,3.8,5.3,1987.0,3.2,3.2,2006.0,2013.0,0.13,0.042,0.228,0.136,0.046,0.293,0.318,0.055999999999999994,0.43,0.40399999999999997,0.358,0.13699999999999998,Bakersfield,35.373292,-119.01871100000001,372680.0,143.609
24,18810.0,2836.6,6.1,43.5,56.5,357500.0,1357.0,1478.0,23.0,1119.0,1797.0,393.0,28.0,10.0,2912.0,4.7,4.9,1964.0,4.3,4.3,1999.0,2011.0,0.255,0.0,0.285,0.43200000000000005,0.027000000000000003,0.35200000000000004,0.623,0.233,0.09300000000000001,0.242,0.626,0.027000000000000003,BaldwinPark,34.085285999999996,-117.960897,76572.0,6.7860000000000005
25,11892.0,514.8,-2.1,36.2,63.8,197500.0,990.0,770.0,23.0,602.0,1325.0,486.0,28.0,17.0,2078.0,3.6,5.2,1984.0,2.3,3.5,2005.0,2012.0,0.41100000000000003,0.0,0.134,0.068,0.0,0.386,0.248,0.126,0.34,0.425,0.307,0.133,Banning,33.925571999999995,-116.876411,30824.0,23.099
26,9361.0,226.4,-2.0,54.9,45.1,99900.0,719.0,739.0,15.0,257.0,1080.0,341.0,19.0,10.0,805.0,3.6,4.7,1970.0,2.8,2.9,2001.0,2013.0,0.0,0.0,0.0,0.009000000000000001,0.013000000000000001,0.087,0.034,0.016,0.306,0.452,0.012,0.307,Barstow,34.895796999999995,-117.017283,23609.0,41.394
27,13896.0,448.7,7.7,25.9,74.1,275200.0,1239.0,1686.0,24.0,531.0,1924.0,605.0,26.0,13.0,4692.0,3.8,6.1,2003.0,3.2,3.5,2009.0,2012.0,0.0,0.0,0.222,0.02,0.027000000000000003,0.354,0.249,0.158,0.445,0.159,0.679,0.057,Beaumont,33.929460999999996,-116.97724699999999,43641.0,30.926
28,9881.0,4019.0,-1.1,77.8,22.2,347300.0,1153.0,1442.0,27.0,1357.0,1760.0,346.0,33.0,10.0,3173.0,4.7,4.1,1958.0,4.5,4.4,2000.0,2010.0,0.057999999999999996,0.016,0.38299999999999995,0.28800000000000003,0.008,0.49,0.757,0.067,0.152,0.341,0.565,0.037000000000000005,BellGardens,33.965292,-118.151458,42845.0,2.463
29,25127.0,4107.3,0.9,60.0,40.0,398000.0,1263.0,1651.0,22.0,991.0,2044.0,441.0,27.0,10.0,3059.0,4.0,4.4,1962.0,3.6,3.1,2002.0,2011.0,0.309,0.10800000000000001,0.265,0.486,0.027000000000000003,0.344,0.584,0.313,0.052000000000000005,0.098,0.769,0.047,Bellflower,33.881683,-118.117011,77852.0,6.17
30,10762.0,2326.7,-2.4,40.0,60.0,1174200.0,1913.0,2947.0,20.0,1090.0,3763.0,757.0,23.0,10.0,8167.0,3.2,5.2,1965.0,2.8,2.2,2000.0,2012.0,0.228,0.439,0.21100000000000002,0.183,0.7490000000000001,0.03,0.013000000000000001,0.93,0.022000000000000002,0.027999999999999997,0.8029999999999999,0.061,Belmont,37.520214,-122.2758,27110.0,4.63
31,1079.0,2077.5,3.3,19.2,80.8,2000001.0,2408.0,3694.0,20.0,987.0,4001.0,1501.0,31.0,12.0,10001.0,2.8,6.6,1958.0,2.2,2.2,1995.0,2011.0,0.0,0.0,0.0,0.138,0.862,0.0,0.065,0.857,0.078,0.14300000000000002,0.8140000000000001,0.0,Belvedere,37.872703,-122.464417,2156.0,2.406
32,49137.0,4695.0,-0.6,57.1,42.9,861800.0,1523.0,2218.0,20.0,1265.0,2977.0,821.0,24.0,10.0,6720.0,3.0,4.4,1941.0,2.5,2.2,1997.0,2012.0,0.35600000000000004,0.21899999999999997,0.21,0.353,0.41,0.079,0.195,0.654,0.067,0.18600000000000003,0.635,0.051,Berkeley,37.871592,-122.272747,120179.0,17.695999999999994
33,17145.0,3003.6,4.6,58.9,41.1,2000001.0,2036.0,3685.0,26.0,2422.0,4001.0,1501.0,32.0,16.0,10001.0,3.2,4.7,1953.0,2.7,2.0,1999.0,2012.0,0.488,0.298,0.091,0.19899999999999998,0.691,0.021,0.067,0.885,0.008,0.079,0.804,0.0,BeverlyHills,34.073619,-118.400356,34506.0,5.71
34,9586.0,1510.4,-1.2,44.2,55.8,384100.0,925.0,1292.0,21.0,928.0,1843.0,617.0,24.0,16.0,2994.0,3.1,4.5,1977.0,2.3,2.5,2003.0,2012.0,0.0,0.0,0.0,0.14,0.055999999999999994,0.042,0.331,0.0,0.326,0.55,0.259,0.11699999999999999,BigBearLake,34.243897,-116.911422,5190.0,6.534
35,610.0,959.7,-1.1,38.8,61.2,151100.0,888.0,1112.0,20.0,431.0,1174.0,450.0,22.0,12.0,1092.0,3.9,5.2,1976.0,3.3,3.6,1997.0,2011.0,0.0,,0.0,0.0,,0.0,0.17300000000000001,,0.35700000000000004,0.46,,0.355,Biggs,39.412389000000005,-121.71275,2034.0,0.636
36,1881.0,1009.2,-2.3,57.2,42.8,286800.0,873.0,753.0,16.0,618.0,1709.0,475.0,28.0,10.0,1485.0,3.4,4.4,1967.0,2.5,1.8,2003.0,2011.0,0.0,0.113,0.258,0.068,0.0,0.486,0.23399999999999999,0.039,0.405,0.574,0.426,0.0,Bishop,37.363539,-118.39511100000001,3802.0,1.911
37,554.0,934.5,-3.1,45.1,54.9,254000.0,1053.0,1092.0,17.0,716.0,1520.0,353.0,27.0,10.0,1289.0,2.7,4.9,1955.0,2.2,2.7,2002.0,2011.0,0.0,0.0,0.0,0.091,0.0,0.303,0.818,0.0,0.17,0.47600000000000003,0.061,0.061,BlueLake,40.882908,-123.98395,1096.0,0.622
38,6426.0,245.4,17.4,46.7,53.3,134000.0,720.0,864.0,20.0,328.0,1306.0,428.0,24.0,12.0,1024.0,3.5,4.6,1973.0,2.6,2.6,2001.0,2012.0,0.0,0.0,0.057999999999999996,0.19,0.0,0.18100000000000002,0.057,0.032,0.31,0.242,0.11199999999999999,0.175,Blythe,33.617233,-114.589175,19486.0,26.972
39,418.0,213.5,4.5,16.8,83.2,1595200.0,1188.0,3227.0,26.0,1810.0,4001.0,1500.0,30.0,14.0,10001.0,3.4,7.7,1973.0,3.0,3.8,2000.0,2008.0,0.0,0.0,0.0,0.33299999999999996,0.0,0.667,0.0,0.25,0.0,0.162,0.081,0.0,Bradbury,34.14695,-117.970897,992.0,1.958
40,8465.0,1102.0,2.8,47.3,52.7,158000.0,822.0,974.0,19.0,421.0,1256.0,449.0,22.0,14.0,1406.0,4.4,5.0,1982.0,3.5,3.8,2000.0,2012.0,0.0,0.0,0.055999999999999994,0.06,0.0,0.174,0.212,0.008,0.385,0.327,0.177,0.249,Brawley,32.978658,-115.530267,25959.0,7.682
41,15616.0,1280.7,5.6,38.9,61.1,610700.0,1698.0,2132.0,23.0,962.0,2545.0,598.0,26.0,11.0,4050.0,3.3,5.6,1976.0,2.9,2.6,2001.0,2012.0,0.5529999999999999,0.322,0.048,0.402,0.374,0.098,0.18100000000000002,0.763,0.013000000000000001,0.085,0.851,0.026000000000000002,Brea,33.916681,-117.90006100000001,41921.0,12.109000000000002
42,19624.0,1321.4,12.0,25.1,74.9,482600.0,2038.0,2240.0,24.0,686.0,2548.0,770.0,26.0,14.0,5422.0,3.5,6.8,2002.0,3.0,3.4,2007.0,2012.0,0.0,0.44,0.56,0.36,0.034,0.154,0.218,0.565,0.098,0.109,0.8320000000000001,0.02,Brentwood,34.057361,-118.480511,58828.0,14.805
43,1948.0,629.3,0.7,29.2,70.8,699800.0,1698.0,2344.0,25.0,958.0,3214.0,598.0,30.0,14.0,5863.0,3.2,5.0,1981.0,2.6,2.0,2004.0,2010.0,1.0,0.0,0.0,0.395,0.425,0.14,0.248,0.626,0.126,0.0,1.0,0.0,Brisbane,37.680766999999996,-122.39997199999999,4642.0,20.077
44,2033.0,1285.0,10.2,29.8,70.2,410200.0,1357.0,1553.0,22.0,785.0,1988.0,393.0,24.0,12.0,2810.0,3.2,5.0,1982.0,2.5,3.0,2003.0,2011.0,0.36700000000000005,0.0,0.139,1.0,0.0,0.0,0.509,0.0,0.106,0.172,0.7440000000000001,0.0,Buellton,34.613597,-120.19265,5087.0,1.5830000000000002
45,24060.0,2287.1,-2.3,45.1,54.9,482300.0,1484.0,1879.0,22.0,1105.0,2189.0,461.0,26.0,10.0,3227.0,4.0,5.3,1963.0,3.5,3.6,2000.0,2012.0,0.521,0.0,0.32,0.611,0.11,0.147,0.522,0.43700000000000006,0.009000000000000001,0.134,0.7929999999999999,0.005,BuenaPark,33.867514,-117.998117,83020.0,10.553
46,43323.0,2496.4,-2.2,59.0,41.0,646000.0,1539.0,2202.0,22.0,1112.0,2694.0,542.0,27.0,11.0,3990.0,3.3,4.4,1959.0,2.8,2.3,2000.0,2011.0,0.419,0.301,0.198,0.5379999999999999,0.22699999999999998,0.098,0.205,0.738,0.035,0.147,0.789,0.022000000000000002,Burbank,34.180839,-118.308967,104765.0,17.379
47,12691.0,2880.8,-2.6,52.1,47.9,1591600.0,1961.0,3191.0,20.0,1708.0,4001.0,878.0,24.0,11.0,7763.0,3.2,4.7,1958.0,2.9,2.1,1999.0,2012.0,0.33299999999999996,0.527,0.102,0.29,0.6859999999999999,0.017,0.027999999999999997,0.9079999999999999,0.024,0.102,0.7809999999999999,0.0,Burlingame,37.584103000000006,-122.366083,30401.0,6.057
48,9353.0,682.4,5.4,30.1,69.9,976300.0,2289.0,3091.0,27.0,1105.0,3840.0,1107.0,30.0,12.0,7467.0,3.2,6.3,1984.0,2.8,2.5,2002.0,,0.36200000000000004,0.5,,0.071,0.915,,0.019,0.937,,0.039,0.961,,Calabasas,34.138333,-118.66083300000001,24169.0,13.3
49,11196.0,1297.0,5.1,47.5,52.5,182900.0,859.0,1185.0,22.0,563.0,1383.0,430.0,26.0,11.0,1675.0,5.0,5.4,1992.0,4.6,4.1,2004.0,2011.0,0.0,0.0,0.0,0.092,0.0,0.069,0.102,0.0,0.447,0.45,0.131,0.154,Calexico,32.678946999999994,-115.498883,39953.0,8.391
50,4833.0,23.7,-7.2,49.3,50.7,102000.0,915.0,850.0,17.0,250.0,1014.0,353.0,20.0,10.0,1027.0,3.5,5.3,1991.0,2.6,3.1,2004.0,,0.0,0.0,0.0,0.0,0.10400000000000001,0.0,0.17,0.071,0.16399999999999998,0.562,0.052000000000000005,0.213,CaliforniaCity,35.1258,-117.98590300000001,13495.0,203.631
51,3866.0,260.4,4.9,16.1,83.9,168700.0,990.0,936.0,21.0,291.0,1582.0,468.0,26.0,16.0,1500.0,3.3,5.4,1976.0,2.5,2.7,2005.0,2010.0,0.0,0.0,0.0,0.0,0.341,0.0,0.29600000000000004,0.0,0.292,0.369,0.38,0.166,Calimesa,34.003903,-117.061975,8517.0,14.847
52,1249.0,336.1,11.4,50.2,49.8,93200.0,722.0,771.0,20.0,240.0,915.0,275.0,22.0,10.0,905.0,4.2,4.8,1987.0,3.3,4.2,1998.0,,0.0,,0.0,0.0,,0.0,0.0,,0.35200000000000004,0.251,,0.319,Calipatria,33.125597,-115.51415300000001,7426.0,3.716
53,2330.0,896.8,0.5,41.1,58.9,475800.0,1153.0,1212.0,26.0,1122.0,2403.0,676.0,28.0,17.0,3612.0,3.3,4.8,1975.0,2.4,2.9,2000.0,2011.0,0.0,0.0,1.0,0.632,0.0,0.29600000000000004,0.498,0.33299999999999996,0.0,0.299,0.267,0.054000000000000006,Calistoga,38.578796999999994,-122.579706,5281.0,2.613
54,25535.0,1307.3,-0.6,32.9,67.1,541600.0,1868.0,2001.0,22.0,846.0,2453.0,588.0,25.0,10.0,3836.0,3.3,5.8,1980.0,2.7,2.7,2003.0,2013.0,0.34,0.503,0.038,0.408,0.42,0.086,0.17,0.7490000000000001,0.027999999999999997,0.05,0.883,0.002,Camarillo,34.216394,-119.037603,67116.0,19.543
55,16898.0,2908.8,-0.3,50.1,49.9,884600.0,1923.0,2634.0,21.0,1155.0,3234.0,643.0,25.0,10.0,6124.0,3.2,4.7,1971.0,2.7,2.5,2002.0,2012.0,0.262,0.5479999999999999,0.05,0.187,0.684,0.008,0.14,0.782,0.012,0.011000000000000001,0.93,0.025,Campbell,37.287164000000004,-121.94995800000001,41164.0,5.886
56,4584.0,1172.0,1.1,21.1,78.9,394900.0,1804.0,2072.0,25.0,627.0,2357.0,589.0,26.0,16.0,3405.0,3.3,6.3,1985.0,2.6,3.2,2005.0,2012.0,0.0,0.0,,1.0,0.0,,0.382,0.303,,0.069,0.845,,CanyonLake,33.685022,-117.27309199999999,11043.0,4.671
57,5212.0,3271.5,-5.8,52.3,47.7,585100.0,1688.0,1585.0,25.0,1121.0,2390.0,574.0,28.0,18.0,4249.0,3.0,4.3,1973.0,2.1,2.3,2002.0,2012.0,0.17800000000000002,0.14400000000000002,0.511,0.48700000000000004,0.39899999999999997,0.113,0.222,0.677,0.013000000000000001,0.038,0.7170000000000001,0.18899999999999997,Capitola,36.975228,-121.95329199999999,10158.0,1.676
58,47119.0,1248.9,5.5,35.0,65.0,713600.0,1918.0,2557.0,22.0,885.0,3043.0,688.0,24.0,11.0,5451.0,3.1,5.7,1987.0,2.7,2.5,2005.0,2012.0,0.262,0.598,0.052000000000000005,0.45899999999999996,0.377,0.09,0.195,0.745,0.013000000000000001,0.11900000000000001,0.8240000000000001,0.012,Carlsbad,33.158091999999996,-117.350594,113147.0,39.11
59,5961.0,2305.2,9.8,47.0,53.0,617000.0,1764.0,1798.0,22.0,1292.0,2646.0,593.0,25.0,13.0,4474.0,3.3,4.9,1974.0,2.7,2.6,2001.0,2011.0,0.24100000000000002,0.462,0.297,0.35700000000000004,0.444,0.16899999999999998,0.09300000000000001,0.8029999999999999,0.055999999999999994,0.061,0.54,0.159,Carpinteria,34.398883000000005,-119.518456,13593.0,9.272
60,26119.0,1395.0,-0.4,25.5,74.5,402500.0,1445.0,1670.0,22.0,937.0,2070.0,424.0,25.0,10.0,3089.0,4.2,5.5,1965.0,3.5,3.9,1999.0,2011.0,0.23600000000000002,0.27399999999999997,0.284,0.218,0.205,0.249,0.489,0.268,0.066,0.204,0.643,0.032,Carson,33.831406,-118.282017,92927.0,18.968
61,22279.0,1036.3,6.1,39.8,60.2,232400.0,1160.0,1179.0,25.0,679.0,1585.0,591.0,31.0,14.0,2517.0,3.9,4.7,1986.0,2.9,3.2,2005.0,2012.0,0.264,0.054000000000000006,0.165,0.113,0.006999999999999999,0.192,0.5489999999999999,0.109,0.23199999999999998,0.488,0.377,0.052000000000000005,CathedralCity,33.779742,-116.46529199999999,53733.0,21.756
62,13636.0,1461.8,-0.3,40.3,59.7,218300.0,1081.0,1250.0,23.0,578.0,1439.0,425.0,27.0,11.0,1673.0,4.0,5.5,1985.0,3.6,3.6,2005.0,2012.0,0.0,0.0,0.526,0.17600000000000002,0.0,0.281,0.32799999999999996,0.017,0.502,0.499,0.256,0.078,Ceres,37.594933000000005,-120.957711,47650.0,8.019
63,16370.0,1876.9,3.2,21.1,78.9,638600.0,2215.0,1803.0,20.0,992.0,2548.0,499.0,25.0,10.0,3818.0,3.6,6.1,1973.0,3.1,3.5,1994.0,2012.0,0.04,0.9059999999999999,0.0,0.337,0.53,0.057999999999999996,0.222,0.6409999999999999,0.022000000000000002,0.032,0.853,0.01,Cerritos,33.858346999999995,-118.06478600000001,50145.0,8.856
64,39872.0,1210.1,7.6,55.6,44.4,286700.0,977.0,1250.0,20.0,664.0,1658.0,491.0,23.0,11.0,2316.0,3.2,4.8,1981.0,2.5,2.4,2004.0,2013.0,0.078,0.037000000000000005,0.18,0.111,0.028999999999999998,0.39399999999999996,0.369,0.040999999999999995,0.42100000000000004,0.37,0.402,0.129,Chico,39.728494,-121.837478,90660.0,33.095
65,20667.0,696.7,-5.2,36.7,63.3,400900.0,1516.0,1903.0,24.0,856.0,2146.0,516.0,27.0,10.0,3193.0,4.0,5.7,1982.0,3.5,3.4,2003.0,2012.0,0.368,0.395,0.046,0.528,0.064,0.233,0.511,0.36700000000000005,0.040999999999999995,0.122,0.737,0.038,Chino,34.012236,-117.68894399999999,85609.0,29.652
66,25145.0,562.7,6.5,23.1,76.9,567200.0,1939.0,2193.0,24.0,849.0,2489.0,691.0,26.0,12.0,4667.0,3.6,6.4,1989.0,3.3,3.0,2002.0,2013.0,0.8170000000000001,0.183,0.0,0.215,0.695,0.08199999999999999,0.162,0.8109999999999999,0.0,0.10300000000000001,0.815,0.013999999999999999,ChinoHills,33.989819,-117.73258600000001,78025.0,44.749
67,85426.0,1721.2,7.6,42.0,58.0,433500.0,1441.0,2069.0,24.0,878.0,2405.0,468.0,28.0,10.0,4195.0,3.9,5.1,1983.0,3.4,3.2,2005.0,2012.0,0.175,0.08900000000000001,0.38,0.409,0.08900000000000001,0.368,0.48200000000000004,0.401,0.059000000000000004,0.10099999999999999,0.78,0.027999999999999997,ChulaVista,32.640053,-117.084197,264101.0,52.094
68,35309.0,2481.6,0.7,44.9,55.1,246600.0,1112.0,1321.0,22.0,554.0,1562.0,456.0,24.0,11.0,1834.0,3.2,5.2,1976.0,2.5,2.5,2003.0,2012.0,0.217,0.061,0.5479999999999999,0.363,0.013999999999999999,0.562,0.591,0.047,0.298,0.361,0.478,0.047,CitrusHeights,38.707125,-121.28106100000001,86618.0,14.228
69,12420.0,930.2,2.2,34.1,65.9,605700.0,1465.0,2116.0,21.0,805.0,2674.0,2674.0,24.0,10.0,4341.0,3.3,6.1,1965.0,2.9,2.3,1999.0,2012.0,0.532,0.13,0.12,0.325,0.065,0.44299999999999995,0.345,0.486,0.084,0.111,0.77,0.049,Claremont,34.096675,-117.719778,35949.0,13.486
70,4308.0,1121.8,5.4,6.5,93.5,667400.0,2502.0,2806.0,22.0,660.0,3090.0,763.0,23.0,10.0,5685.0,3.3,7.1,1984.0,2.8,3.4,2001.0,2011.0,0.0,0.0,,0.314,0.371,,0.0,0.569,,0.0,0.899,,Clayton,37.941033000000004,-121.93579199999999,11838.0,3.836
71,8370.0,826.3,4.2,50.2,49.8,93900.0,822.0,596.0,23.0,349.0,1107.0,386.0,32.0,15.0,1018.0,3.3,4.6,1976.0,2.2,2.6,2005.0,2012.0,0.0,0.0,0.0,0.035,0.027999999999999997,0.102,0.244,0.0,0.359,0.312,0.165,0.276,Clearlake,38.958231,-122.626372,15061.0,10.581
72,3331.0,1097.1,-2.8,31.7,68.3,355200.0,1171.0,1635.0,22.0,836.0,1880.0,529.0,23.0,13.0,3547.0,3.4,5.0,1986.0,2.7,2.8,2004.0,2011.0,0.0,0.0,0.0,0.203,0.091,0.13699999999999998,0.5529999999999999,0.15,0.196,0.201,0.799,0.0,Cloverdale,38.805461,-123.017222,8810.0,2.648
73,37217.0,1545.9,5.4,39.5,60.5,284200.0,1140.0,1565.0,20.0,531.0,1839.0,519.0,23.0,11.0,2683.0,3.5,5.7,1991.0,3.0,2.9,2006.0,2013.0,0.078,0.21100000000000002,0.285,0.191,0.048,0.379,0.402,0.069,0.368,0.364,0.494,0.059000000000000004,Clovis,36.825228,-119.702919,104411.0,23.278
74,4653.0,697.0,7.1,45.5,54.5,161100.0,845.0,1157.0,18.0,335.0,1411.0,432.0,22.0,10.0,1392.0,3.7,4.9,1983.0,3.2,2.7,2004.0,2013.0,0.0,0.0,0.0,0.11,0.0,0.31,0.301,0.0,0.292,0.38299999999999995,0.156,0.311,Coalinga,36.139678,-120.36015,16612.0,6.15
75,977.0,694.9,5.2,58.7,41.3,182800.0,1140.0,1262.0,30.0,413.0,1415.0,485.0,34.0,17.0,1658.0,3.1,4.9,1978.0,2.1,2.6,2009.0,2011.0,0.0,0.0,0.0,0.0,0.0,0.165,0.455,0.076,0.39399999999999996,0.285,0.715,0.0,Colfax,39.100731,-120.953275,2187.0,1.4069999999999998
76,18281.0,1193.0,11.8,48.6,51.4,212100.0,1085.0,1188.0,22.0,585.0,1482.0,417.0,27.0,12.0,1854.0,3.9,4.8,1979.0,3.5,3.1,2002.0,2012.0,0.035,0.242,0.48700000000000004,0.32299999999999995,0.013999999999999999,0.451,0.595,0.044000000000000004,0.263,0.359,0.435,0.065,Colton,34.073903,-117.31365600000001,54200.0,16.039
77,2323.0,1266.5,1.8,39.8,60.2,194900.0,805.0,1106.0,21.0,533.0,1378.0,397.0,28.0,10.0,1308.0,3.4,5.1,1971.0,2.6,3.1,2001.0,2011.0,0.0,0.0,0.0,0.0,0.0,0.033,0.079,0.040999999999999995,0.457,0.6990000000000001,0.08199999999999999,0.086,Colusa,39.214333,-122.009417,5938.0,1.834
78,3731.0,570.7,7.5,57.8,42.2,357200.0,1014.0,1333.0,24.0,1068.0,1729.0,368.0,32.0,12.0,2874.0,4.3,4.7,1956.0,3.9,3.4,1993.0,2008.0,0.0,0.0,0.5589999999999999,0.163,0.0,0.38,0.557,0.11800000000000001,0.242,0.27899999999999997,0.451,0.10099999999999999,Commerce,34.000569,-118.159792,12998.0,6.5379999999999985
79,24884.0,2485.4,1.5,45.7,54.3,287300.0,1139.0,1511.0,27.0,907.0,1692.0,410.0,31.0,11.0,2829.0,4.6,4.9,1955.0,4.1,4.1,2001.0,2010.0,0.27399999999999997,0.0,0.218,0.256,0.025,0.517,0.517,0.158,0.16,0.233,0.535,0.09699999999999999,Compton,33.89585,-118.220072,97847.0,10.116
80,47822.0,1565.7,1.5,40.5,59.5,461700.0,1459.0,1830.0,22.0,817.0,2253.0,517.0,26.0,10.0,3241.0,3.4,5.3,1970.0,2.7,2.9,2001.0,2012.0,0.374,0.276,0.177,0.574,0.151,0.13699999999999998,0.52,0.409,0.03,0.15,0.762,0.016,Concord,37.977978,-122.031072,128160.0,30.546
81,4198.0,559.4,6.1,54.3,45.7,122700.0,794.0,872.0,20.0,349.0,1025.0,361.0,25.0,10.0,989.0,4.1,5.0,1980.0,3.2,3.6,2000.0,2012.0,0.253,0.0,0.149,0.0,0.0,0.091,0.051,0.0,0.447,0.324,0.11199999999999999,0.231,Corcoran,37.977978,-122.031072,22650.0,7.467
82,2900.0,817.0,1.0,52.8,47.2,155300.0,744.0,985.0,22.0,490.0,1126.0,303.0,28.0,10.0,1031.0,3.6,4.7,1981.0,2.6,3.1,2003.0,2012.0,0.301,0.0,0.0,0.0,0.0,0.05,0.0,0.0,0.47600000000000003,0.473,0.065,0.331,Corning,39.927658,-122.179156,7550.0,3.55
83,51774.0,1333.1,9.8,35.1,64.9,411600.0,1462.0,1984.0,24.0,822.0,2240.0,566.0,27.0,11.0,3638.0,3.9,6.0,1989.0,3.4,3.1,2005.0,2012.0,0.27899999999999997,0.34299999999999997,0.075,0.46,0.11199999999999999,0.307,0.574,0.315,0.06,0.114,0.802,0.025,Corona,33.875294,-117.56643899999999,163585.0,38.93
84,10760.0,1356.7,11.7,50.8,49.2,1423600.0,2366.0,2555.0,24.0,1735.0,3662.0,1026.0,30.0,13.0,6979.0,3.0,5.0,1972.0,2.2,2.5,2001.0,2013.0,0.261,0.537,0.138,0.198,0.602,0.109,0.15,0.7859999999999999,0.01,0.013999999999999999,0.912,0.004,Coronado,32.685885999999996,-117.183089,24053.0,32.666
85,42476.0,2701.4,0.8,60.9,39.1,671800.0,1722.0,2122.0,23.0,1316.0,2610.0,513.0,26.0,10.0,4156.0,3.5,4.4,1970.0,2.7,2.7,2000.0,2012.0,0.301,0.40399999999999997,0.20199999999999999,0.436,0.49700000000000005,0.024,0.204,0.754,0.016,0.083,0.82,0.011000000000000001,CostaMesa,33.641133,-117.918669,112930.0,15.7
86,3038.0,1616.0,-3.3,41.9,58.1,429700.0,1327.0,1624.0,24.0,838.0,2066.0,658.0,26.0,12.0,3382.0,3.2,4.9,1984.0,2.5,2.7,2002.0,2011.0,0.198,0.321,0.48100000000000004,0.298,0.064,0.163,0.5920000000000001,0.23800000000000002,0.055,0.19399999999999998,0.7090000000000001,0.09699999999999999,Cotati,38.327778,-122.709167,7448.0,1.883
87,15887.0,2260.5,-4.2,43.3,56.7,441100.0,1340.0,1826.0,22.0,928.0,2158.0,497.0,25.0,10.0,3266.0,3.8,5.4,1960.0,3.2,3.1,2001.0,2011.0,0.275,0.18899999999999997,0.318,0.6409999999999999,0.039,0.243,0.618,0.303,0.033,0.19699999999999998,0.6920000000000001,0.016,Covina,34.090008000000005,-117.89033899999998,48601.0,7.041
88,1869.0,951.9,-1.9,69.2,30.8,120400.0,733.0,907.0,21.0,343.0,980.0,320.0,27.0,13.0,1399.0,3.3,4.6,1966.0,2.3,2.2,2003.0,2011.0,0.308,0.0,0.0,0.044000000000000004,0.0,0.23,0.032,0.0,0.32,0.6859999999999999,0.079,0.071,CrescentCity,41.755947,-124.201747,6751.0,2.415
89,5694.0,4845.9,-1.3,85.3,14.7,327500.0,1190.0,1372.0,22.0,1210.0,1764.0,310.0,32.0,10.0,3455.0,4.7,4.2,1958.0,4.2,4.4,2001.0,2010.0,0.294,0.0,0.382,0.267,0.013999999999999999,0.474,0.804,0.084,0.066,0.39899999999999997,0.541,0.024,Cudahy,33.960569,-118.18535,24146.0,1.226
90,17373.0,3399.2,-0.7,46.6,53.4,735600.0,1758.0,2034.0,22.0,1114.0,2752.0,588.0,27.0,12.0,4694.0,3.2,4.2,1964.0,2.5,2.2,2000.0,2012.0,0.319,0.409,0.183,0.326,0.519,0.084,0.131,0.7829999999999999,0.03,0.086,0.812,0.045,CulverCity,34.021122,-118.39646699999999,39432.0,5.1389999999999985
91,22112.0,1954.9,5.2,37.6,62.4,1372800.0,2829.0,2932.0,19.0,1089.0,3760.0,789.0,24.0,10.0,9062.0,3.4,5.3,1973.0,2.9,3.0,2001.0,2012.0,0.039,0.574,0.045,0.04,0.888,0.0,0.031,0.9329999999999999,0.0,0.055999999999999994,0.889,0.0,Cupertino,37.322996999999994,-122.032183,60687.0,11.257
92,16266.0,2459.0,1.2,32.8,67.2,576500.0,1751.0,2000.0,22.0,952.0,2490.0,529.0,26.0,10.0,3787.0,3.5,5.8,1970.0,3.1,3.1,1999.0,2012.0,0.142,0.319,0.0,0.534,0.257,0.032,0.376,0.569,0.03,0.051,0.862,0.022000000000000002,Cypress,37.320531,-121.96224199999999,49108.0,6.59
93,32451.0,4247.3,-0.4,43.1,56.9,651600.0,1899.0,2062.0,22.0,1375.0,2589.0,553.0,27.0,10.0,4091.0,4.0,4.8,1966.0,3.5,3.3,1996.0,2011.0,0.23800000000000002,0.67,0.047,0.282,0.597,0.035,0.11199999999999999,0.79,0.019,0.079,0.807,0.024,DalyCity,37.687925,-122.47020800000001,106480.0,7.664
94,17244.0,2653.2,8.2,39.7,60.3,833800.0,1941.0,2443.0,23.0,1179.0,3131.0,722.0,31.0,11.0,5308.0,3.0,5.5,1978.0,2.2,2.4,2001.0,2012.0,0.8220000000000001,0.0,0.11800000000000001,0.39799999999999996,0.48200000000000004,0.075,0.10400000000000001,0.835,0.006999999999999999,0.026000000000000002,0.9259999999999999,0.01,DanaPoint,33.466972,-117.698108,34028.0,29.484
95,25642.0,2593.5,-0.9,56.1,43.9,594000.0,1377.0,1901.0,17.0,882.0,2468.0,638.0,21.0,10.0,4810.0,3.0,5.0,1980.0,2.6,2.7,2001.0,2013.0,0.405,0.05,0.271,0.624,0.077,0.18899999999999997,0.53,0.326,0.061,0.114,0.7240000000000001,0.037000000000000005,Davis,38.544906,-121.740517,67500.0,9.919
96,2855.0,1672.7,10.0,46.1,53.9,2000001.0,1987.0,2987.0,22.0,2554.0,4001.0,932.0,30.0,10.0,9486.0,2.4,4.9,1970.0,2.1,1.7,1998.0,2011.0,,1.0,,,1.0,,,1.0,,,1.0,,DelMar,32.959489000000005,-117.26531399999999,4338.0,1.777
97,737.0,1535.5,-0.5,29.8,70.2,480100.0,2074.0,1691.0,21.0,735.0,2375.0,392.0,26.0,10.0,2872.0,3.3,5.6,1958.0,2.5,2.8,1993.0,2012.0,0.0,0.0,1.0,0.312,0.688,0.0,0.0,0.914,0.0,0.0,0.87,0.0,DelReyOaks,36.593292,-121.834953,1555.0,0.483
98,11977.0,837.4,11.8,40.8,59.2,167900.0,826.0,964.0,22.0,551.0,1193.0,376.0,26.0,12.0,1495.0,4.3,5.0,1982.0,4.0,3.8,2003.0,2011.0,0.048,0.0,0.145,0.03,0.0,0.266,0.154,0.0,0.507,0.44,0.055,0.294,Delano,35.768842,-119.24705300000001,52709.0,14.355
99,11854.0,392.5,8.7,56.3,43.7,154600.0,918.0,932.0,23.0,481.0,1228.0,408.0,29.0,13.0,1815.0,3.9,4.5,1988.0,2.8,3.1,2006.0,2012.0,0.062,0.0,0.0,0.024,0.0,0.32799999999999996,0.18100000000000002,0.034,0.446,0.524,0.142,0.223,DesertHotSprings,33.961125,-116.501678,28298.0,23.642
100,18525.0,1244.9,0.4,22.8,77.2,614800.0,1935.0,1951.0,23.0,1004.0,2397.0,658.0,26.0,11.0,4577.0,3.5,6.2,1980.0,3.1,3.3,1999.0,2012.0,0.14800000000000002,0.5329999999999999,0.319,0.33299999999999996,0.457,0.066,0.17800000000000002,0.73,0.015,0.035,0.836,0.018000000000000002,DiamondBar,34.028622,-117.810336,56600.0,14.885
101,6306.0,974.6,7.5,49.9,50.1,164800.0,891.0,1076.0,21.0,532.0,1272.0,367.0,25.0,10.0,1264.0,4.2,5.2,1980.0,3.7,4.0,2001.0,2012.0,0.37,0.0,0.0,0.0,0.0,0.111,0.141,0.054000000000000006,0.391,0.424,0.135,0.332,Dinuba,36.543283,-119.38706699999999,23712.0,6.47
102,6204.0,870.4,0.5,30.6,69.4,331800.0,1243.0,1669.0,25.0,758.0,1842.0,480.0,27.0,10.0,2668.0,3.7,5.6,1988.0,3.1,3.7,2002.0,2012.0,0.0,0.0,1.0,0.10300000000000001,0.015,0.48100000000000004,0.636,0.15,0.184,0.322,0.6779999999999999,0.0,Dixon,38.445464,-121.823297,19488.0,7.0920000000000005
103,417.0,593.6,0.7,44.0,56.0,103200.0,669.0,512.0,19.0,352.0,778.0,375.0,32.0,13.0,824.0,3.3,4.7,1966.0,2.6,2.5,2003.0,2012.0,0.0,,0.0,0.5,,0.0,0.038,,0.038,0.289,,0.311,Dorris,41.967369,-121.91806100000001,877.0,0.718
104,1507.0,1117.0,-11.4,31.4,68.6,100100.0,790.0,703.0,18.0,274.0,991.0,338.0,28.0,10.0,806.0,4.0,5.0,1976.0,3.4,3.9,2003.0,2012.0,0.0,,0.0,0.0,,0.0,0.045,,0.467,0.605,,0.18600000000000003,DosPalos,36.986058,-120.626572,5186.0,1.35
105,34159.0,2753.0,-4.1,49.2,50.8,479500.0,1313.0,1912.0,24.0,1144.0,2366.0,478.0,30.0,10.0,3681.0,4.0,4.9,1958.0,3.6,3.3,2000.0,2012.0,0.608,0.053,0.256,0.595,0.038,0.32,0.579,0.33899999999999997,0.04,0.11900000000000001,0.818,0.027000000000000003,Downey,33.940014,-118.13256899999999,113358.0,12.568
106,7174.0,1072.3,-1.1,36.2,63.8,422000.0,1489.0,1667.0,22.0,897.0,1994.0,486.0,26.0,10.0,3178.0,3.8,5.3,1964.0,3.2,2.9,2001.0,2011.0,0.183,0.532,0.0,0.18899999999999997,0.157,0.265,0.386,0.528,0.013999999999999999,0.14,0.584,0.017,Duarte,34.13945,-117.977286,21832.0,6.69
107,19587.0,1285.8,24.1,34.2,65.8,756800.0,2353.0,2984.0,23.0,756.0,3294.0,731.0,24.0,10.0,7022.0,3.3,5.8,1999.0,3.0,2.6,2008.0,2013.0,0.086,0.81,0.043,0.055,0.779,0.127,0.099,0.851,0.0,0.057999999999999996,0.8540000000000001,0.049,Dublin,37.702153,-121.93579199999999,57022.0,14.912
108,1151.0,717.4,3.7,45.4,54.6,152100.0,903.0,752.0,23.0,488.0,1117.0,372.0,34.0,14.0,916.0,2.7,5.0,1944.0,1.9,2.4,1996.0,2011.0,0.0,0.0,0.0,0.0,0.0,0.18,0.098,0.0,0.439,0.5429999999999999,0.073,0.344,Dunsmuir,41.208208,-122.271953,1594.0,1.735
109,7956.0,3174.5,1.8,64.0,36.0,600200.0,1613.0,2135.0,26.0,1685.0,2596.0,645.0,31.0,13.0,5095.0,4.8,4.3,1968.0,3.9,3.9,2002.0,2011.0,0.287,0.242,0.308,0.5720000000000001,0.258,0.08,0.239,0.659,0.026000000000000002,0.084,0.813,0.006,EastPaloAlto,37.468828,-122.141075,29646.0,2.612
110,15400.0,1216.1,6.3,24.2,75.8,496000.0,2526.0,2638.0,26.0,802.0,2767.0,864.0,28.0,13.0,6954.0,4.5,7.6,2005.0,4.0,4.4,2009.0,2012.0,0.0,1.0,0.0,0.0,0.853,0.0,0.086,0.914,0.0,0.057,0.836,0.021,Eastvale,33.963056,-117.56388899999999,59733.0,11.445
111,33600.0,2320.7,-6.3,61.8,38.2,403700.0,1185.0,1565.0,22.0,992.0,2099.0,526.0,26.0,11.0,2757.0,3.7,4.4,1973.0,2.9,3.2,2002.0,2012.0,0.377,0.065,0.233,0.42200000000000004,0.026000000000000002,0.43,0.6920000000000001,0.145,0.06,0.155,0.71,0.021,ElCajon,32.794771999999995,-116.962528,103314.0,14.433
112,13864.0,1236.7,-4.2,50.4,49.6,172800.0,768.0,1060.0,20.0,422.0,1524.0,461.0,24.0,10.0,1499.0,4.3,4.8,1977.0,3.9,3.5,2003.0,2011.0,0.026000000000000002,0.0,0.0,0.042,0.018000000000000002,0.158,0.12300000000000001,0.011000000000000001,0.444,0.39299999999999996,0.158,0.151,ElCentro,32.792,-115.56305,43932.0,11.099
113,10455.0,2859.0,-2.4,40.0,60.0,682300.0,1690.0,2113.0,21.0,934.0,2795.0,590.0,25.0,10.0,5648.0,3.0,5.3,1955.0,2.5,2.5,2000.0,2012.0,0.141,0.462,0.196,0.439,0.35600000000000004,0.128,0.318,0.6,0.044000000000000004,0.10099999999999999,0.772,0.0,ElCerrito,37.916133,-122.31076399999999,24982.0,3.688
114,31454.0,3289.4,8.2,59.5,40.5,401000.0,1160.0,1332.0,22.0,1484.0,1838.0,423.0,30.0,10.0,3596.0,4.5,4.4,1963.0,4.0,3.8,1999.0,2010.0,0.166,0.031,0.368,0.358,0.021,0.42100000000000004,0.7390000000000001,0.077,0.114,0.33899999999999997,0.45899999999999996,0.083,ElMonte,34.068622,-118.02756699999999,115958.0,9.648
115,7060.0,1292.3,-4.7,55.4,44.6,875600.0,1681.0,2731.0,21.0,1085.0,3309.0,559.0,24.0,10.0,5362.0,3.2,4.6,1962.0,2.9,2.3,2002.0,2011.0,0.657,0.038,0.124,0.41100000000000003,0.314,0.16899999999999998,0.1,0.831,0.043,0.126,0.7959999999999999,0.013000000000000001,ElSegundo,33.919181,-118.41646399999999,16929.0,5.465
116,53164.0,1259.9,5.0,27.3,72.7,349500.0,1560.0,1834.0,22.0,581.0,2056.0,609.0,24.0,10.0,3406.0,3.7,6.4,1999.0,3.2,3.2,2005.0,2012.0,0.39799999999999996,0.359,0.035,0.374,0.08199999999999999,0.316,0.534,0.22899999999999998,0.184,0.17600000000000002,0.718,0.03,ElkGrove,38.4088,-121.37161699999999,166228.0,42.239
117,6946.0,5422.9,4.5,64.2,35.8,441900.0,2038.0,1889.0,22.0,542.0,2329.0,697.0,26.0,12.0,3960.0,2.7,3.1,1988.0,1.7,1.8,2006.0,2013.0,0.309,0.578,0.07400000000000001,0.125,0.7020000000000001,0.057999999999999996,0.19899999999999998,0.738,0.0,0.21100000000000002,0.789,0.0,Emeryville,37.831317,-122.285247,11524.0,2.01
118,26321.0,1399.2,2.3,36.2,63.8,862300.0,1837.0,2427.0,21.0,1175.0,3016.0,667.0,24.0,11.0,5436.0,3.2,5.5,1978.0,2.7,2.4,2001.0,2012.0,0.402,0.46799999999999997,0.102,0.40399999999999997,0.358,0.08800000000000001,0.128,0.809,0.026000000000000002,0.08199999999999999,0.8240000000000001,0.01,Encinitas,33.036986,-117.291983,62595.0,19.99
119,2823.0,1226.9,8.2,33.8,66.2,256800.0,1228.0,1501.0,18.0,493.0,1791.0,392.0,20.0,10.0,2357.0,3.6,5.7,1985.0,2.8,2.8,2003.0,2011.0,0.0,1.0,0.0,0.0,0.0,0.0,0.214,0.071,0.207,0.44,0.46,0.062,Escalon,37.797428000000004,-120.99660300000001,7449.0,2.3680000000000003
120,47213.0,1274.0,-1.7,50.2,49.8,396200.0,1318.0,1807.0,24.0,1029.0,2147.0,539.0,27.0,12.0,2972.0,3.9,4.9,1981.0,3.2,3.4,2004.0,2012.0,0.249,0.081,0.47700000000000004,0.496,0.094,0.278,0.594,0.285,0.061,0.23399999999999999,0.672,0.027000000000000003,Escondido,33.119208,-117.086422,150783.0,36.989
121,350.0,460.7,-2.5,32.1,67.9,154600.0,813.0,753.0,20.0,452.0,1060.0,398.0,24.0,15.0,1223.0,3.1,4.6,1970.0,2.4,2.6,2001.0,2012.0,0.0,,0.0,0.0,,0.0,0.0,,0.387,0.397,,0.44799999999999995,Etna,41.456806,-122.894756,709.0,0.759
122,12654.0,1348.4,6.4,54.8,45.2,249300.0,847.0,1141.0,22.0,746.0,1520.0,361.0,28.0,10.0,1600.0,3.2,4.7,1952.0,2.3,2.2,2001.0,2012.0,0.0,0.063,0.0,0.065,0.006999999999999999,0.324,0.335,0.023,0.426,0.327,0.413,0.129,Eureka,40.802071999999995,-124.16367199999999,27024.0,14.454
123,3564.0,1447.0,-1.0,38.1,61.9,184100.0,866.0,1014.0,19.0,458.0,1250.0,345.0,24.0,10.0,1331.0,3.7,5.5,1976.0,3.0,3.3,2003.0,,0.0,0.0,0.0,0.141,0.0,0.034,0.221,0.0,0.29100000000000004,0.39899999999999997,0.154,0.337,Exeter,36.296061,-119.142053,10520.0,2.463
124,37461.0,916.2,0.7,44.0,56.0,341500.0,1445.0,1783.0,21.0,650.0,2054.0,479.0,24.0,10.0,2898.0,3.7,5.8,1984.0,3.1,3.1,2004.0,2012.0,0.245,0.35700000000000004,0.26899999999999996,0.39899999999999997,0.151,0.314,0.489,0.249,0.179,0.14800000000000002,0.7440000000000001,0.025,Fairfield,38.249358,-122.03996699999999,112790.0,37.635
125,2706.0,1198.2,-0.7,35.1,64.9,133900.0,741.0,890.0,23.0,440.0,1002.0,298.0,28.0,11.0,981.0,4.6,5.3,1983.0,4.3,3.5,2004.0,2012.0,0.0,0.0,0.24100000000000002,0.174,0.0,0.139,0.043,0.043,0.25,0.28600000000000003,0.08800000000000001,0.29600000000000004,Farmersville,36.297728,-119.206778,10738.0,2.258
126,808.0,787.1,12.7,45.8,54.2,352900.0,1037.0,905.0,25.0,1046.0,1773.0,481.0,33.0,17.0,2757.0,2.9,5.3,1952.0,2.0,2.2,1993.0,2012.0,0.0,0.0,0.0,0.0,0.0,0.574,0.434,0.048,0.301,0.5820000000000001,0.12300000000000001,0.192,Ferndale,40.576242,-124.263944,1458.0,1.027
127,4558.0,1355.1,3.4,30.4,69.6,354900.0,1247.0,1813.0,24.0,776.0,2123.0,400.0,28.0,10.0,2799.0,4.1,5.4,1973.0,3.5,3.7,2003.0,2011.0,0.0,0.23199999999999998,0.609,0.145,0.08900000000000001,0.322,0.883,0.066,0.051,0.213,0.698,0.055999999999999994,Fillmore,34.399164,-118.918153,15529.0,3.365
128,2189.0,622.7,4.4,52.8,47.2,122400.0,676.0,1027.0,22.0,452.0,1232.0,365.0,27.0,10.0,1221.0,4.1,4.7,1985.0,4.2,3.4,2000.0,2010.0,0.0,,0.0,0.0,,0.213,0.09,,0.23199999999999998,0.263,,0.248,Firebaugh,36.858839,-120.45600800000001,8275.0,3.519
129,27623.0,1258.6,5.8,30.2,69.8,456600.0,1493.0,2081.0,20.0,536.0,2371.0,644.0,22.0,11.0,4413.0,3.2,6.1,1995.0,2.8,2.3,2005.0,2013.0,0.43,0.136,0.23600000000000002,0.499,0.193,0.131,0.431,0.442,0.065,0.16399999999999998,0.762,0.01,Folsom,38.677958000000004,-121.17605800000001,75897.0,24.301
130,54000.0,1253.7,4.1,35.6,64.4,323300.0,1224.0,1734.0,25.0,789.0,1933.0,484.0,27.0,10.0,3324.0,4.4,5.7,1987.0,4.0,3.9,2005.0,2012.0,0.136,0.011000000000000001,0.27699999999999997,0.18,0.013999999999999999,0.40299999999999997,0.622,0.047,0.245,0.217,0.6629999999999999,0.04,Fontana,34.092233,-117.435047,207086.0,42.432
131,3141.0,1142.6,-1.7,64.1,35.9,294900.0,985.0,1119.0,21.0,869.0,1779.0,413.0,25.0,12.0,2034.0,3.6,4.3,1970.0,2.4,2.6,2000.0,2011.0,0.0,0.0,0.226,0.135,0.045,0.19,0.34299999999999997,0.203,0.33799999999999997,0.28800000000000003,0.45,0.10400000000000001,FortBragg,39.445721999999996,-123.805292,7269.0,2.8
132,375.0,622.6,9.0,43.4,56.6,157000.0,782.0,1119.0,24.0,416.0,1317.0,372.0,27.0,11.0,1127.0,3.5,5.1,1957.0,2.5,2.9,1999.0,2011.0,0.0,,0.0,0.0,,0.0,0.055999999999999994,,0.408,0.6729999999999999,,0.115,FortJones,41.663864000000004,-124.25289199999999,819.0,0.602
133,5010.0,1034.0,0.4,44.4,55.6,251800.0,930.0,1095.0,22.0,685.0,1482.0,414.0,27.0,12.0,1764.0,3.3,4.9,1976.0,2.6,2.6,2004.0,2012.0,0.0,0.0,0.43200000000000005,0.133,0.0,0.159,0.243,0.083,0.513,0.342,0.35700000000000004,0.095,Fortuna,40.598186,-124.157275,11981.0,4.845
134,13417.0,3534.7,7.7,41.7,58.3,1051000.0,2763.0,2660.0,21.0,992.0,3338.0,828.0,24.0,11.0,6497.0,3.1,5.0,1975.0,2.6,2.6,2000.0,2013.0,0.0,0.87,0.13,0.045,0.925,0.0,0.044000000000000004,0.889,0.01,0.004,0.9179999999999999,0.009000000000000001,FosterCity,37.558547,-122.271078,33529.0,19.841
135,19023.0,2096.8,-0.7,30.5,69.5,654100.0,1832.0,1955.0,21.0,1121.0,2534.0,537.0,27.0,10.0,3853.0,3.5,5.9,1972.0,3.1,3.0,1998.0,2012.0,0.08,0.636,0.08,0.27,0.546,0.048,0.11,0.84,0.021,0.042,0.82,0.008,FountainValley,33.709185999999995,-117.95366899999999,56640.0,9.031
136,1803.0,709.2,-2.1,46.2,53.8,201000.0,871.0,1248.0,22.0,560.0,1519.0,420.0,25.0,10.0,1863.0,3.9,5.3,1983.0,3.3,3.5,2001.0,2011.0,0.0,0.0,0.29100000000000004,0.0,0.0,0.0,0.174,0.0,0.36,0.47,0.121,0.11699999999999999,Fowler,36.630506,-119.67846899999999,6200.0,2.531
137,76550.0,988.2,3.5,37.6,62.4,785700.0,2028.0,2457.0,20.0,948.0,2869.0,624.0,23.0,10.0,5747.0,3.5,5.1,1978.0,3.1,3.1,2002.0,2012.0,0.225,0.599,0.022000000000000002,0.21100000000000002,0.672,0.038,0.11599999999999999,0.8340000000000001,0.018000000000000002,0.033,0.897,0.009000000000000001,Fremont,37.548269,-121.98857199999999,230964.0,87.61
138,176617.0,1555.1,3.1,53.1,46.9,206800.0,931.0,1199.0,21.0,528.0,1474.0,429.0,24.0,11.0,1775.0,3.8,5.0,1978.0,3.1,3.1,2003.0,2012.0,0.14800000000000002,0.027999999999999997,0.245,0.111,0.026000000000000002,0.311,0.292,0.038,0.41200000000000003,0.42700000000000005,0.27,0.16699999999999998,Fresno,36.746842,-119.772586,519037.0,112.308
139,47885.0,2134.6,0.0,48.4,51.6,589600.0,1479.0,2025.0,22.0,1179.0,2540.0,540.0,27.0,10.0,3852.0,3.6,5.0,1968.0,2.9,3.1,2001.0,2012.0,0.584,0.08900000000000001,0.21899999999999997,0.597,0.22699999999999998,0.09699999999999999,0.38299999999999995,0.541,0.028999999999999998,0.08800000000000001,0.799,0.013999999999999999,Fullerton,33.870292,-117.925339,139976.0,22.36
140,8190.0,1366.1,6.7,28.5,71.5,270300.0,1197.0,1529.0,22.0,564.0,1707.0,517.0,24.0,11.0,2481.0,3.7,5.5,1993.0,3.2,3.1,2005.0,2012.0,0.0,0.07200000000000001,0.36200000000000004,0.046,0.0,0.391,0.409,0.095,0.28600000000000003,0.423,0.368,0.124,Galt,38.254636,-121.299947,25222.0,5.944
141,48758.0,2715.2,2.1,46.2,53.8,476300.0,1421.0,1733.0,22.0,1207.0,2138.0,475.0,27.0,10.0,3342.0,4.2,5.0,1964.0,3.6,3.6,2000.0,2011.0,0.445,0.147,0.20800000000000002,0.584,0.09699999999999999,0.14,0.43700000000000006,0.418,0.03,0.142,0.708,0.034,GardenGrove,33.773906,-117.941447,174812.0,17.959
142,21551.0,3697.1,0.4,50.3,49.7,407000.0,1197.0,1506.0,23.0,1007.0,2065.0,425.0,30.0,10.0,2967.0,3.6,4.5,1960.0,3.0,2.8,2000.0,2011.0,0.31,0.048,0.32,0.439,0.02,0.39299999999999996,0.621,0.188,0.11199999999999999,0.22,0.662,0.057999999999999996,Gardena,33.88835,-118.30896100000001,60096.0,5.865
143,16145.0,1000.2,8.7,42.0,58.0,583900.0,1611.0,2334.0,22.0,1115.0,2673.0,587.0,25.0,10.0,5073.0,3.9,5.9,1984.0,3.2,3.6,2005.0,2011.0,0.484,0.11599999999999999,0.271,0.237,0.32,0.07,0.392,0.479,0.042,0.12300000000000001,0.746,0.013000000000000001,Gilroy,37.005783,-121.568275,54159.0,16.156
144,76607.0,2516.4,0.4,66.2,33.8,675300.0,1431.0,2276.0,25.0,1313.0,2732.0,652.0,28.0,12.0,4337.0,3.4,4.2,1963.0,2.9,2.6,2001.0,2011.0,0.353,0.157,0.32299999999999995,0.5870000000000001,0.16899999999999998,0.121,0.301,0.627,0.026000000000000002,0.14300000000000002,0.7170000000000001,0.052000000000000005,Glendale,34.142508,-118.255075,199750.0,30.583
145,17612.0,907.8,-0.9,29.4,70.6,517100.0,1519.0,1948.0,22.0,855.0,2356.0,561.0,26.0,11.0,3729.0,3.5,5.7,1963.0,2.9,3.1,2000.0,2011.0,0.111,0.059000000000000004,0.24100000000000002,0.466,0.031,0.294,0.449,0.473,0.032,0.079,0.813,0.008,Glendora,34.136119,-117.86533899999999,51891.0,19.558
146,11635.0,1482.0,1.4,47.1,52.9,718300.0,1840.0,1982.0,23.0,1391.0,2609.0,585.0,27.0,11.0,4147.0,3.5,4.9,1970.0,2.8,2.8,1999.0,2012.0,0.742,0.11900000000000001,0.109,0.446,0.465,0.024,0.152,0.7509999999999999,0.036000000000000004,0.07200000000000001,0.861,0.0,Goleta,34.435828,-119.82763899999999,30847.0,7.975
147,2002.0,1044.4,0.7,51.4,48.6,253700.0,1179.0,1475.0,27.0,717.0,1636.0,326.0,30.0,10.0,2016.0,4.7,4.7,1984.0,3.8,4.6,2002.0,2010.0,0.08199999999999999,0.0,0.6940000000000001,0.253,0.0,0.598,0.602,0.055999999999999994,0.27399999999999997,0.42100000000000004,0.496,0.051,Gonzales,36.506628000000006,-121.444381,8462.0,1.959
148,4412.0,1259.7,-5.1,39.4,60.6,275700.0,1305.0,1445.0,22.0,549.0,1739.0,451.0,25.0,11.0,2453.0,3.6,5.4,1978.0,3.1,2.6,2001.0,2011.0,0.43799999999999994,0.0,0.562,0.5,0.015,0.282,0.667,0.265,0.049,0.193,0.546,0.02,GrandTerrace,34.033903,-117.313653,12439.0,3.502
149,6445.0,1358.8,-2.9,60.2,39.8,280400.0,1000.0,1064.0,25.0,754.0,1476.0,420.0,30.0,13.0,1941.0,3.2,4.3,1974.0,1.9,2.2,2007.0,2012.0,0.201,0.145,0.39899999999999997,0.159,0.073,0.48700000000000004,0.5,0.114,0.217,0.396,0.308,0.07400000000000001,GrassValley,39.219060999999996,-121.06106100000001,12893.0,4.743
150,3874.0,1814.4,3.3,51.5,48.5,260200.0,1242.0,1407.0,24.0,847.0,1549.0,356.0,26.0,10.0,1965.0,5.2,4.9,1989.0,4.4,4.9,2004.0,2012.0,0.518,0.0,0.282,0.415,0.0,0.379,0.47200000000000003,0.20199999999999999,0.321,0.34,0.5760000000000001,0.042,Greenfield,36.3208,-121.24381399999999,17188.0,2.135
151,2584.0,1248.1,7.4,49.5,50.5,158000.0,769.0,1074.0,23.0,533.0,1303.0,303.0,25.0,10.0,1267.0,3.4,4.9,1967.0,2.9,2.8,2001.0,2012.0,0.0,0.0,0.0,0.0,0.0,0.0,0.252,0.027000000000000003,0.376,0.245,0.11800000000000001,0.45,Gridley,39.363778,-121.693583,6576.0,
152,5746.0,2487.4,-0.0,57.9,42.1,446800.0,1241.0,1484.0,21.0,1042.0,2093.0,429.0,24.0,10.0,3308.0,3.2,4.4,1978.0,2.4,2.6,2004.0,2012.0,0.0,0.0,0.16,0.386,0.069,0.326,0.622,0.271,0.07,0.19699999999999998,0.754,0.027999999999999997,GroverBeach,35.121642,-120.621283,13524.0,2.314
153,1991.0,1520.5,5.5,46.8,53.2,210900.0,1140.0,1228.0,21.0,709.0,1408.0,330.0,26.0,10.0,1597.0,4.3,4.7,1981.0,3.4,4.2,1996.0,2011.0,0.0,0.0,1.0,0.293,0.069,0.0,0.46,0.038,0.435,0.375,0.56,0.054000000000000006,Guadalupe,34.971644,-120.571836,7313.0,1.314
154,2129.0,1372.7,2.0,45.4,54.6,151900.0,854.0,938.0,19.0,416.0,1247.0,296.0,25.0,11.0,1324.0,3.4,5.3,1973.0,2.7,3.1,2002.0,2011.0,0.0,0.0,0.0,0.051,0.0,0.142,0.0,0.0,0.391,0.23199999999999998,0.075,0.596,Gustine,37.257717,-120.998814,5735.0,1.551
155,5395.0,840.0,22.8,30.9,69.1,841800.0,2052.0,2254.0,21.0,1090.0,3234.0,780.0,23.0,17.0,6050.0,3.1,5.6,1978.0,2.4,3.0,2004.0,2011.0,0.395,0.272,0.0,0.096,0.23600000000000002,0.0,0.147,0.7609999999999999,0.052000000000000005,0.11900000000000001,0.845,0.0,HalfMoonBay,37.463553000000005,-122.42858600000001,12565.0,6.444
156,19363.0,1152.3,4.7,43.5,56.5,192900.0,943.0,1177.0,19.0,456.0,1425.0,409.0,22.0,10.0,1642.0,3.6,5.3,1983.0,3.0,3.1,2004.0,2012.0,0.099,0.183,0.263,0.066,0.039,0.251,0.273,0.015,0.418,0.42200000000000004,0.23,0.156,Hanford,36.32745,-119.645683,55599.0,16.589000000000002
157,4018.0,4238.1,8.5,58.6,41.4,307100.0,1266.0,1211.0,29.0,1059.0,1678.0,428.0,34.0,20.0,2149.0,4.2,4.3,1965.0,3.9,3.6,2001.0,2008.0,0.625,0.08199999999999999,0.09,0.256,0.0,0.273,0.544,0.141,0.065,0.298,0.532,0.0,HawaiianGardens,33.831403,-118.072842,14465.0,0.956
158,30988.0,5095.7,3.7,73.5,26.5,461400.0,1126.0,2012.0,25.0,1263.0,2373.0,400.0,29.0,10.0,3970.0,3.8,3.8,1966.0,3.4,2.8,2002.0,2011.0,0.311,0.018000000000000002,0.523,0.441,0.012,0.504,0.733,0.157,0.071,0.171,0.735,0.04,Hawthorne,33.916403,-118.352575,87425.0,6.0920000000000005
159,48765.0,1073.6,1.0,48.4,51.6,462000.0,1562.0,1955.0,22.0,990.0,2339.0,501.0,26.0,11.0,3557.0,3.9,4.8,1971.0,3.3,3.2,2003.0,2012.0,0.298,0.34,0.16899999999999998,0.43799999999999994,0.341,0.10400000000000001,0.402,0.503,0.038,0.122,0.7440000000000001,0.032,Hayward,37.668819,-122.080797,156917.0,63.74800000000001
160,5118.0,1148.3,6.8,41.3,58.7,647600.0,1494.0,1813.0,20.0,1240.0,2459.0,574.0,24.0,11.0,4005.0,3.1,5.3,1974.0,2.4,2.6,2001.0,2011.0,0.193,0.0,0.37,0.563,0.122,0.315,0.391,0.406,0.079,0.131,0.847,0.022000000000000002,Healdsburg,38.610467,-122.869161,11721.0,4.464
161,34068.0,1223.4,-3.5,42.4,57.6,157500.0,1011.0,841.0,22.0,422.0,1327.0,444.0,27.0,16.0,1543.0,3.7,4.9,1983.0,2.7,3.0,2007.0,2012.0,0.247,0.262,0.149,0.084,0.057999999999999996,0.23600000000000002,0.395,0.040999999999999995,0.384,0.424,0.382,0.105,Hemet,33.747519,-116.97196699999999,83604.0,27.847
162,8436.0,1315.6,-1.4,17.8,82.2,457300.0,1779.0,2201.0,24.0,706.0,2448.0,700.0,26.0,10.0,5191.0,3.6,6.2,1987.0,3.0,3.3,2003.0,2012.0,0.765,0.235,0.0,0.46,0.11699999999999999,0.264,0.418,0.562,0.0,0.0,0.8420000000000001,0.061,Hercules,38.017144,-122.28858100000001,25260.0,18.179
163,10189.0,7142.4,0.3,53.5,46.5,1220500.0,2035.0,3022.0,20.0,1292.0,3910.0,705.0,24.0,10.0,6993.0,3.0,4.6,1968.0,2.4,1.9,2000.0,2012.0,0.527,0.445,0.027999999999999997,0.256,0.7,0.006999999999999999,0.084,0.873,0.0,0.081,0.835,0.033,HermosaBeach,33.862235999999996,-118.399519,19750.0,1.4269999999999998
164,27833.0,380.8,-4.0,37.0,63.0,199200.0,1102.0,1151.0,22.0,501.0,1354.0,378.0,25.0,11.0,1492.0,4.1,6.0,1986.0,3.5,3.7,2005.0,2012.0,0.249,0.0,0.081,0.07400000000000001,0.009000000000000001,0.16,0.359,0.006999999999999999,0.413,0.539,0.242,0.098,Hesperia,34.426389,-117.300878,93190.0,73.209
165,16873.0,899.7,1.8,35.1,64.9,288500.0,1010.0,1550.0,22.0,648.0,1846.0,468.0,25.0,12.0,2675.0,4.0,5.6,1981.0,3.4,3.6,2003.0,2012.0,0.0,0.0,0.0,0.078,0.011000000000000001,0.419,0.321,0.021,0.526,0.406,0.402,0.042,Highland,34.128344,-117.20865,54704.0,18.89
166,10834.0,1479.2,4.2,38.5,61.5,415900.0,1338.0,2005.0,24.0,868.0,2196.0,566.0,26.0,12.0,3379.0,4.0,5.6,1986.0,3.4,3.7,2004.0,2011.0,0.111,0.40700000000000003,0.0,0.205,0.0,0.371,0.465,0.165,0.20800000000000002,0.20800000000000002,0.691,0.053,Hollister,36.852453000000004,-121.40160300000001,37182.0,7.29
167,2153.0,1875.2,11.2,44.1,55.9,150900.0,716.0,834.0,21.0,456.0,1254.0,346.0,23.0,13.0,1122.0,4.3,5.0,1976.0,3.6,3.5,2001.0,2009.0,0.0,0.0,0.0,0.0,0.0,0.0,0.0,0.0,0.61,0.138,0.233,0.196,Holtville,32.811161,-115.380264,6355.0,1.153
168,2530.0,1280.5,13.2,35.5,64.5,256300.0,1125.0,1552.0,21.0,392.0,1711.0,518.0,23.0,13.0,2250.0,3.5,5.7,1993.0,3.5,2.2,2004.0,2011.0,1.0,0.0,0.0,0.0,0.5710000000000001,0.0,0.14300000000000002,0.152,0.10800000000000001,0.233,0.439,0.254,Hughson,37.602725,-120.86648100000001,7295.0,1.815
169,81128.0,2992.6,4.0,41.7,58.3,688700.0,1748.0,1988.0,21.0,1079.0,2693.0,577.0,26.0,10.0,4296.0,3.2,5.3,1972.0,2.6,2.6,1999.0,2012.0,0.39399999999999996,0.354,0.158,0.435,0.419,0.057,0.21600000000000003,0.71,0.019,0.069,0.841,0.02,HuntingtonBeach,33.660297,-117.999225,200415.0,31.882
170,14867.0,4935.0,-1.9,73.7,26.3,357500.0,985.0,1642.0,28.0,1384.0,1852.0,451.0,32.0,12.0,3572.0,4.6,3.8,1951.0,4.7,3.9,1997.0,2010.0,0.132,0.052000000000000005,0.37799999999999995,0.225,0.005,0.604,0.674,0.10800000000000001,0.135,0.327,0.539,0.063,HuntingtonPark,33.981681,-118.225072,58993.0,3.016
171,1815.0,1140.8,13.3,68.5,31.5,119100.0,663.0,897.0,25.0,453.0,998.0,385.0,29.0,14.0,1244.0,4.4,4.6,1990.0,4.7,3.8,2001.0,2010.0,0.141,0.0,0.14800000000000002,0.0,0.0,0.336,0.0,0.043,0.124,0.21100000000000002,0.0,0.223,Huron,36.202731,-120.10291699999999,6926.0,1.591
172,5298.0,904.6,11.5,27.6,72.4,209200.0,1216.0,1620.0,21.0,329.0,1728.0,459.0,22.0,12.0,2026.0,4.4,5.9,2001.0,3.7,4.1,2008.0,2012.0,0.452,0.0,0.0,0.0,0.0,0.201,0.513,0.023,0.418,0.479,0.39299999999999996,0.109,Imperial,32.847553000000005,-115.56943899999999,16931.0,5.856
173,10111.0,2429.8,2.3,68.2,31.8,433400.0,1269.0,1580.0,23.0,1141.0,2169.0,408.0,28.0,11.0,3075.0,3.8,4.2,1970.0,2.9,3.1,2001.0,2012.0,0.188,0.0,0.7709999999999999,0.445,0.039,0.41200000000000003,0.68,0.22,0.054000000000000006,0.171,0.715,0.016,ImperialBeach,32.583944,-117.11308600000001,27270.0,4.485
174,5440.0,379.8,5.9,14.1,85.9,667000.0,725.0,1932.0,22.0,603.0,3173.0,1247.0,28.0,15.0,6922.0,2.2,5.7,1986.0,1.9,1.5,2005.0,2007.0,0.0,0.0,0.0,0.077,0.0,0.192,0.196,0.375,0.429,0.092,0.4,0.062,IndianWells,33.717631,-116.340756,5267.0,14.591
175,35406.0,1066.3,22.2,33.0,67.0,247900.0,1072.0,1337.0,24.0,673.0,1709.0,575.0,30.0,14.0,3297.0,3.8,5.1,1998.0,2.9,3.1,2007.0,2012.0,0.024,0.0,0.17,0.122,0.012,0.396,0.4,0.113,0.285,0.27899999999999997,0.496,0.066,Indio,33.720578,-116.21556100000001,86867.0,29.189
176,77.0,6.5,5.5,82.3,17.7,410000.0,795.0,,22.0,820.0,2333.0,,25.0,10.0,3083.0,4.6,4.9,1958.0,3.2,4.1,1996.0,2010.0,0.0,0.0,0.0,0.0,0.0,0.0,0.2,0.25,0.25,0.292,0.0,0.708,Industry,34.019733,-117.958675,334.0,12.064
177,38187.0,4211.2,-0.6,64.2,35.8,389600.0,1186.0,1692.0,25.0,1057.0,1951.0,446.0,29.0,12.0,3082.0,3.9,4.3,1958.0,3.2,2.9,1998.0,2011.0,0.18600000000000003,0.009000000000000001,0.451,0.436,0.03,0.363,0.602,0.276,0.081,0.29,0.5870000000000001,0.054000000000000006,Inglewood,33.961681,-118.353131,111006.0,9.093
178,1674.0,364.3,2.4,25.4,74.6,243100.0,1067.0,1351.0,23.0,425.0,1698.0,496.0,24.0,16.0,2081.0,2.7,5.5,1993.0,2.3,2.5,2006.0,2012.0,0.0,0.0,0.0,0.0,0.0,0.489,0.31,0.03,0.66,0.446,0.17600000000000002,0.045,Ione,38.352692,-120.932717,7161.0,4.78
179,98362.0,1499.8,17.2,51.8,48.2,753400.0,2114.0,2487.0,22.0,924.0,2993.0,746.0,25.0,10.0,6186.0,3.2,4.7,1993.0,2.8,2.6,2005.0,2013.0,0.161,0.642,0.028999999999999998,0.068,0.848,0.040999999999999995,0.095,0.83,0.021,0.075,0.8390000000000001,0.017,Irvine,33.683946999999996,-117.79469399999999,256877.0,66.454
180,417.0,47.2,6.9,30.0,70.0,351100.0,1458.0,1224.0,27.0,881.0,1524.0,300.0,31.0,11.0,1957.0,4.2,5.5,1970.0,3.7,3.3,1996.0,2007.0,0.0,0.0,0.0,0.0,0.0,0.0,0.5,0.083,0.125,0.16899999999999998,0.6920000000000001,0.015,Irwindale,34.106953000000004,-117.93534199999999,1371.0,9.613
181,398.0,905.3,-6.4,46.9,53.1,225800.0,893.0,733.0,26.0,619.0,1413.0,406.0,43.0,10.0,1430.0,3.4,4.7,1960.0,2.6,2.4,2002.0,2009.0,0.0,0.0,0.0,0.1,0.0,0.0,0.16699999999999998,0.0,0.5710000000000001,0.435,0.226,0.226,Isleton,38.161861,-121.611622,597.0,0.4920000000000001
182,2500.0,670.3,8.3,39.9,60.1,238100.0,996.0,893.0,22.0,584.0,1766.0,519.0,29.0,18.0,1631.0,3.0,5.1,1975.0,2.1,2.3,2002.0,2012.0,0.0,0.0,0.0,0.0,0.0,0.36200000000000004,0.256,0.0,0.619,0.392,0.413,0.087,Jackson,38.348803000000004,-120.774103,4656.0,3.73
183,26549.0,618.3,,34.2,65.8,308900.0,1169.0,1507.0,23.0,800.0,1698.0,473.0,26.0,11.0,2099.0,4.6,5.4,1978.0,4.1,3.8,2002.0,2012.0,0.061,0.193,0.364,0.191,0.052000000000000005,0.266,0.52,0.114,0.254,0.33,0.512,0.07400000000000001,JurupaValley,33.999522,-117.475397,102202.0,43.5
184,3943.0,1206.8,0.9,46.4,53.6,203600.0,840.0,1387.0,24.0,597.0,1475.0,417.0,27.0,10.0,1759.0,4.4,5.0,1996.0,3.9,3.7,2005.0,,0.0,0.0,0.578,0.0,0.0,0.262,0.226,0.0,0.375,0.425,0.11599999999999999,0.377,Kerman,36.723558000000004,-120.059878,14537.0,3.233
185,3349.0,871.1,4.1,56.5,43.5,230800.0,1006.0,1189.0,25.0,837.0,1459.0,451.0,31.0,18.0,1641.0,4.6,4.5,1978.0,4.0,4.3,2001.0,2012.0,0.109,0.0,0.606,0.09699999999999999,0.109,0.29,0.413,0.08800000000000001,0.312,0.41700000000000004,0.503,0.054000000000000006,KingCity,36.212744,-121.126028,13721.0,3.984
186,4016.0,1132.2,-1.3,35.1,64.9,236000.0,861.0,1186.0,19.0,445.0,1557.0,494.0,22.0,12.0,1961.0,3.8,5.5,1983.0,3.2,2.6,2003.0,2011.0,0.0,0.0,0.0,0.0,0.0,0.214,0.109,0.0,0.573,0.711,0.099,0.125,Kingsburg,36.513839000000004,-119.55401699999999,11794.0,2.8280000000000003
187,19655.0,2672.7,-1.4,43.1,56.9,473200.0,1410.0,1717.0,22.0,1042.0,2201.0,484.0,27.0,10.0,2930.0,3.9,4.8,1967.0,3.2,3.3,2001.0,2012.0,0.087,0.259,0.48100000000000004,0.633,0.158,0.154,0.518,0.396,0.032,0.152,0.769,0.013999999999999999,LaHabra,33.931958,-117.946172,61965.0,7.376
188,1993.0,323.6,6.0,6.4,93.6,893200.0,2350.0,2444.0,24.0,1177.0,3567.0,758.0,30.0,11.0,7108.0,3.3,6.7,1969.0,2.9,3.0,1999.0,2006.0,0.0,0.0,,1.0,0.0,,0.0,0.0,,0.0,0.659,,LaHabraHeights,33.960846999999994,-117.95061899999999,5425.0,6.162000000000001
189,25040.0,2758.1,-4.3,58.4,41.6,455800.0,1375.0,1690.0,23.0,902.0,2134.0,476.0,27.0,11.0,3066.0,3.3,4.6,1969.0,2.5,2.5,2001.0,2012.0,0.402,0.121,0.091,0.52,0.151,0.209,0.517,0.38,0.053,0.08900000000000001,0.8170000000000001,0.023,LaMesa,32.767828,-117.02308300000001,59479.0,9.116
190,14706.0,1880.1,-2.6,22.2,77.8,478400.0,1622.0,1870.0,21.0,846.0,2242.0,452.0,24.0,10.0,3552.0,3.7,5.5,1960.0,3.3,2.9,1998.0,2011.0,0.22899999999999998,0.41200000000000003,0.09,0.387,0.221,0.263,0.27399999999999997,0.506,0.1,0.078,0.76,0.013000000000000001,LaMirada,33.917235999999995,-118.01200800000001,49162.0,7.857
191,5039.0,2825.5,-3.5,31.9,68.1,612200.0,1653.0,1699.0,18.0,1017.0,2410.0,524.0,23.0,10.0,3907.0,3.7,6.1,1971.0,3.2,3.3,1995.0,2011.0,0.25,0.0,0.0,0.369,0.449,0.071,0.34299999999999997,0.645,0.013000000000000001,0.055,0.868,0.0,LaPalma,33.846403,-118.04673100000001,15814.0,1.832
192,9350.0,2687.7,-4.2,43.0,57.0,364300.0,1235.0,1469.0,23.0,1145.0,1742.0,404.0,28.0,10.0,2697.0,4.9,5.3,1958.0,4.6,4.3,1997.0,2011.0,0.162,0.0,0.5329999999999999,0.507,0.0,0.373,0.615,0.175,0.094,0.221,0.523,0.113,LaPuente,34.020011,-117.94950800000001,40451.0,3.48
193,24540.0,698.5,4.5,29.0,71.0,376100.0,1386.0,1658.0,23.0,706.0,2010.0,802.0,27.0,13.0,4424.0,3.2,5.4,1998.0,2.5,3.1,2006.0,2012.0,0.06,0.16,0.32,0.147,0.0,0.155,0.32899999999999996,0.161,0.166,0.26899999999999996,0.58,0.040999999999999995,LaQuinta,33.646692,-116.31000800000001,40305.0,35.551
194,11695.0,1387.2,0.1,25.8,74.2,535900.0,1415.0,1672.0,20.0,926.0,2339.0,554.0,25.0,10.0,3393.0,3.4,5.9,1975.0,2.8,2.7,2000.0,2011.0,0.065,0.34600000000000003,0.0,0.272,0.244,0.08900000000000001,0.528,0.391,0.046,0.141,0.652,0.10300000000000001,LaVerne,34.100842,-117.76783600000002,32320.0,8.562000000000001
195,10112.0,672.0,4.8,26.8,73.2,1214200.0,1940.0,3121.0,18.0,1012.0,3921.0,896.0,22.0,10.0,8255.0,3.1,6.7,1963.0,2.8,2.4,1997.0,2012.0,0.4,0.0,0.6,0.397,0.33799999999999997,0.064,0.142,0.8440000000000001,0.0,0.017,0.912,0.025,Lafayette,37.885758,-122.11801899999999,25792.0,15.387
196,13180.0,1481.9,2.0,37.5,62.5,1570700.0,2191.0,2624.0,20.0,1561.0,3880.0,755.0,25.0,10.0,7298.0,2.9,5.2,1963.0,2.3,2.0,1999.0,2012.0,0.557,0.308,0.06,0.2,0.6829999999999999,0.033,0.025,0.9259999999999999,0.025,0.040999999999999995,0.816,0.013000000000000001,LagunaBeach,33.542246999999996,-117.783111,23224.0,9.821
197,10934.0,1655.8,-1.0,29.3,70.7,649700.0,1906.0,2309.0,23.0,1111.0,2684.0,730.0,27.0,10.0,4382.0,3.5,5.9,1980.0,2.9,3.2,2002.0,2012.0,0.0,1.0,0.0,0.253,0.7140000000000001,0.0,0.068,0.8440000000000001,0.008,0.008,0.8240000000000001,0.022000000000000002,LagunaHills,33.599722,-117.699444,31235.0,6.695
198,26706.0,1811.7,5.5,29.5,70.5,737400.0,2004.0,2464.0,24.0,960.0,2859.0,743.0,27.0,11.0,4795.0,3.1,5.9,1985.0,2.5,2.8,2002.0,2013.0,0.0,0.507,0.15,0.281,0.662,0.04,0.051,0.898,0.017,0.046,0.848,0.012,LagunaNiguel,33.522525,-117.707553,65429.0,14.885
199,12709.0,3799.5,-2.4,23.9,76.1,246600.0,1656.0,904.0,26.0,539.0,1643.0,834.0,34.0,23.0,1637.0,2.1,4.3,1968.0,1.4,1.4,2007.0,,0.0,0.618,0.382,0.34700000000000003,0.479,0.069,0.235,0.588,0.035,0.0,0.743,0.047,LagunaWoods,33.6103,-117.72533100000001,16314.0,3.115
200,17802.0,464.2,9.5,37.3,62.7,306400.0,1342.0,1713.0,24.0,640.0,1917.0,565.0,27.0,10.0,4073.0,4.2,5.9,1999.0,3.8,3.7,2008.0,2012.0,0.281,0.0,0.188,0.299,0.034,0.42100000000000004,0.547,0.14400000000000002,0.212,0.218,0.684,0.034,LakeElsinore,33.668078,-117.32726100000001,62229.0,41.687
201,28984.0,1742.5,7.0,30.7,69.3,585100.0,1846.0,2162.0,22.0,908.0,2437.0,621.0,23.0,10.0,3894.0,3.5,5.6,1982.0,2.9,2.9,2002.0,2013.0,0.11800000000000001,0.8140000000000001,0.034,0.271,0.672,0.0,0.083,0.8590000000000001,0.002,0.078,0.825,0.01,LakeForest,33.646967,-117.689217,81812.0,17.902
202,2558.0,836.5,6.8,45.2,54.8,194200.0,853.0,1093.0,20.0,392.0,1564.0,447.0,24.0,13.0,1549.0,2.9,4.7,1974.0,2.3,2.1,2003.0,2012.0,0.0,0.0,0.816,0.0,0.0,0.13699999999999998,0.259,0.021,0.575,0.18,0.38,0.31,Lakeport,39.04295,-122.915828,4766.0,3.198
203,27208.0,2888.7,-1.0,28.6,71.4,475800.0,1662.0,1866.0,22.0,841.0,2200.0,415.0,26.0,10.0,3365.0,3.7,5.5,1957.0,3.1,3.2,1999.0,2012.0,0.46,0.44299999999999995,0.08,0.528,0.12300000000000001,0.257,0.35700000000000004,0.578,0.013000000000000001,0.068,0.836,0.026000000000000002,Lakewood,33.853628,-118.13395600000001,81106.0,9.466
204,53330.0,565.5,2.9,46.2,53.8,213100.0,1133.0,1348.0,23.0,495.0,1580.0,482.0,26.0,12.0,2602.0,3.9,6.2,1985.0,3.3,3.0,2005.0,2012.0,0.272,0.012,0.2,0.133,0.017,0.331,0.46799999999999997,0.025,0.28300000000000003,0.41600000000000004,0.369,0.078,Lancaster,34.686786,-118.154164,160113.0,94.547
205,6175.0,2040.0,-3.2,51.7,48.3,1181400.0,1987.0,2646.0,22.0,1322.0,3929.0,929.0,26.0,14.0,8652.0,3.0,4.3,1967.0,2.4,1.8,2001.0,2011.0,0.545,0.129,0.0,0.139,0.7559999999999999,0.0,0.105,0.8759999999999999,0.0,0.0,0.917,0.038,Larkspur,37.934092,-122.535253,12367.0,3.2430000000000003
206,5718.0,260.7,8.7,29.9,70.1,292900.0,1604.0,1667.0,25.0,618.0,1844.0,521.0,27.0,14.0,3130.0,4.2,6.2,1998.0,3.7,4.2,2007.0,,1.0,0.0,0.0,0.29600000000000004,0.0,0.102,0.43799999999999994,0.0,0.45299999999999996,0.18899999999999997,0.701,0.018000000000000002,Lathrop,37.822706,-121.27661100000002,21050.0,23.033
207,10347.0,5241.2,1.9,67.7,32.3,417600.0,1357.0,1818.0,25.0,1118.0,2061.0,456.0,29.0,14.0,3435.0,4.1,4.2,1962.0,3.5,3.3,2002.0,2011.0,0.145,0.036000000000000004,0.555,0.486,0.054000000000000006,0.37200000000000005,0.5429999999999999,0.35200000000000004,0.054000000000000006,0.28300000000000003,0.669,0.021,Lawndale,33.887236,-118.352575,33191.0,1.974
208,8868.0,2286.4,,45.9,54.1,367700.0,1201.0,1688.0,23.0,885.0,1977.0,428.0,27.0,10.0,2699.0,3.9,5.2,1963.0,3.4,2.8,2002.0,2012.0,0.319,0.0,0.369,0.25,0.063,0.489,0.669,0.213,0.081,0.258,0.57,0.045,LemonGrove,32.742553,-117.03141699999999,26645.0,3.88
209,9020.0,1059.1,4.5,48.1,51.9,199200.0,897.0,1342.0,20.0,520.0,1523.0,401.0,24.0,10.0,1492.0,3.6,5.1,1985.0,3.3,2.7,2005.0,2013.0,0.040999999999999995,0.0,0.154,0.0,0.053,0.527,0.183,0.008,0.495,0.442,0.258,0.231,Lemoore,36.300783,-119.78291100000001,25525.0,8.517000000000001
210,18023.0,897.0,3.2,21.0,79.0,389900.0,1658.0,1629.0,23.0,653.0,2059.0,638.0,26.0,13.0,4263.0,3.2,6.0,2004.0,2.6,2.9,2007.0,2012.0,0.528,0.11199999999999999,0.124,0.218,0.013999999999999999,0.255,0.20800000000000002,0.418,0.244,0.157,0.765,0.018000000000000002,Lincoln,38.891564,-121.293008,46404.0,20.13
211,3838.0,1470.8,20.2,49.2,50.8,133400.0,705.0,797.0,24.0,509.0,1061.0,325.0,28.0,12.0,1012.0,4.2,5.0,1974.0,3.7,3.6,2002.0,,0.0,0.0,0.0,0.044000000000000004,0.081,0.0,0.021,0.015,0.267,0.24,0.059000000000000004,0.39299999999999996,Lindsay,36.203006,-119.08816100000001,13167.0,2.61
212,2532.0,811.3,1.4,35.4,64.6,152000.0,784.0,1054.0,22.0,475.0,1311.0,373.0,24.0,13.0,1413.0,4.1,5.6,1980.0,3.4,3.7,2003.0,2012.0,0.0,0.0,0.25,0.0,0.0,0.0,0.08199999999999999,0.055,0.145,0.325,0.09,0.35,LiveOak,36.983561,-121.98051699999999,8537.0,
213,32458.0,1208.1,7.0,28.8,71.2,643200.0,1768.0,2432.0,22.0,848.0,2784.0,581.0,24.0,10.0,5333.0,3.3,5.9,1977.0,2.8,2.7,2003.0,2011.0,0.305,0.265,0.161,0.34700000000000003,0.401,0.057,0.20800000000000002,0.653,0.039,0.11699999999999999,0.753,0.049,Livermore,37.681875,-121.76800800000001,88232.0,25.176
214,3567.0,970.0,7.4,41.4,58.6,187500.0,1006.0,1112.0,21.0,573.0,1340.0,371.0,23.0,13.0,1429.0,4.3,5.4,1993.0,3.9,4.0,2004.0,2011.0,0.0,0.0,0.2,0.20600000000000002,0.0,0.258,0.08900000000000001,0.0,0.46299999999999997,0.612,0.07200000000000001,0.204,Livingston,37.386883000000005,-120.723533,13831.0,3.715
215,23760.0,1738.1,-0.1,46.1,53.9,269400.0,1053.0,1355.0,21.0,632.0,1667.0,438.0,24.0,12.0,1998.0,3.5,5.1,1974.0,2.8,2.9,2003.0,2012.0,0.066,0.24600000000000002,0.11900000000000001,0.079,0.069,0.324,0.474,0.033,0.39,0.375,0.466,0.07200000000000001,Lodi,38.134147,-121.27221899999999,64403.0,13.825
216,9300.0,1237.3,-3.6,64.4,35.6,333200.0,1186.0,1165.0,19.0,660.0,1910.0,569.0,24.0,12.0,3299.0,3.4,4.5,1979.0,3.0,2.5,2002.0,2012.0,0.29100000000000004,0.629,0.04,0.47,0.038,0.295,0.493,0.159,0.27399999999999997,0.307,0.536,0.055999999999999994,LomaLinda,34.048347,-117.26115300000001,23961.0,7.517
217,8532.0,4464.5,1.4,54.2,45.8,561500.0,1301.0,1882.0,21.0,1094.0,2352.0,515.0,26.0,10.0,4000.0,3.3,4.4,1964.0,2.7,2.4,2001.0,2010.0,0.285,0.255,0.065,0.659,0.054000000000000006,0.135,0.518,0.32799999999999996,0.08900000000000001,0.114,0.6559999999999999,0.018000000000000002,Lomita,33.792239,-118.315072,20707.0,1.911
218,14129.0,1218.7,-2.0,57.5,42.5,269100.0,1079.0,1306.0,21.0,730.0,1687.0,404.0,25.0,10.0,1893.0,3.8,4.8,1971.0,2.7,3.2,2001.0,2012.0,0.028999999999999998,0.16399999999999998,0.134,0.203,0.004,0.43700000000000006,0.389,0.14,0.359,0.28800000000000003,0.536,0.099,Lompoc,34.63915,-120.45794199999999,43762.0,11.675
219,173741.0,3453.0,-1.3,60.0,40.0,476400.0,1198.0,1834.0,23.0,1033.0,2234.0,485.0,27.0,10.0,3318.0,3.8,4.2,1957.0,2.9,2.7,2001.0,2012.0,0.257,0.081,0.39799999999999996,0.43,0.12,0.32299999999999995,0.493,0.345,0.08800000000000001,0.21899999999999997,0.6459999999999999,0.039,LongBeach,33.768322,-118.195617,470489.0,51.437
220,4240.0,1054.3,-2.6,56.4,43.6,741100.0,1682.0,1800.0,20.0,1229.0,2396.0,518.0,23.0,10.0,3614.0,3.4,5.2,1969.0,2.8,2.8,1993.0,2012.0,0.10300000000000001,0.155,0.466,0.581,0.12,0.141,0.317,0.6509999999999999,0.023,0.11,0.82,0.07,LosAlamitos,33.803072,-118.07256399999999,11639.0,4.1160000000000005
221,11045.0,1706.0,-1.4,17.0,83.0,2000001.0,2891.0,3524.0,20.0,1191.0,4001.0,1111.0,24.0,10.0,10001.0,3.2,7.0,1961.0,2.9,2.7,2001.0,,0.266,0.44299999999999995,0.29100000000000004,0.03,0.9440000000000001,0.0,0.017,0.89,0.0,0.057,0.8440000000000001,0.0,LosAltos,33.796331,-118.118119,30527.0,6.487
222,1457762.0,3110.4,3.1,63.2,36.8,549800.0,1302.0,2085.0,25.0,1343.0,2531.0,659.0,29.0,13.0,3878.0,3.8,4.1,1961.0,3.1,2.7,2001.0,2011.0,0.262,0.165,0.295,0.43,0.231,0.195,0.35,0.485,0.076,0.184,0.638,0.057999999999999996,LosAngeles,34.052233,-118.24368600000001,3949780.0,503.0
223,11364.0,1137.2,-0.1,45.8,54.2,226700.0,1114.0,1289.0,24.0,546.0,1511.0,409.0,27.0,13.0,1892.0,4.1,5.5,1993.0,3.4,3.6,2006.0,2012.0,0.066,0.047,0.156,0.09699999999999999,0.0,0.182,0.19,0.055,0.376,0.47200000000000003,0.3,0.11199999999999999,LosBanos,37.058278,-120.84991399999998,37559.0,10.117
224,425.0,1195.5,14.6,18.1,81.9,98200.0,1040.0,728.0,23.0,278.0,1140.0,432.0,28.0,18.0,1003.0,3.4,5.3,1956.0,2.5,3.9,1994.0,2010.0,0.0,0.0,0.0,0.0,0.0,0.0,0.727,0.0,0.091,0.243,0.135,0.18899999999999997,Loyalton,39.676294,-120.24103899999999,1082.0,0.355
225,15705.0,3244.8,2.8,57.6,42.4,345100.0,1122.0,1691.0,28.0,1174.0,1830.0,483.0,31.0,10.0,3025.0,4.9,4.7,1955.0,4.8,4.2,2000.0,2011.0,0.162,0.02,0.413,0.28,0.008,0.5589999999999999,0.631,0.133,0.172,0.29,0.561,0.064,Lynwood,33.930292,-118.21146100000001,71350.0,4.84
226,18458.0,1169.0,8.3,54.0,46.0,180400.0,972.0,1078.0,20.0,520.0,1237.0,393.0,24.0,11.0,1450.0,4.2,5.1,1984.0,3.5,3.7,2005.0,2012.0,0.318,0.0,0.35100000000000003,0.042,0.08199999999999999,0.134,0.19399999999999998,0.026000000000000002,0.48200000000000004,0.583,0.08900000000000001,0.182,Madera,36.961335999999996,-120.060717,64058.0,15.789
227,7448.0,376.4,8.5,26.4,73.6,1974100.0,2522.0,2828.0,21.0,1718.0,4001.0,1158.0,24.0,11.0,10001.0,3.0,5.6,1974.0,2.5,1.8,2000.0,2011.0,0.0,0.5329999999999999,0.0,0.067,0.867,0.0,0.013000000000000001,0.857,0.0,0.055999999999999994,0.71,0.009000000000000001,Malibu,34.005008000000004,-118.810172,12871.0,19.828
228,15237.0,3870.0,2.1,31.1,68.9,1694900.0,2393.0,3176.0,20.0,1433.0,4001.0,836.0,23.0,11.0,8660.0,3.2,6.0,1964.0,2.8,2.2,2000.0,2012.0,0.25,0.594,0.025,0.2,0.706,0.045,0.096,0.883,0.003,0.006,0.877,0.011000000000000001,ManhattanBeach,33.884736,-118.410908,35698.0,3.941
229,24644.0,1199.4,6.5,40.8,59.2,319600.0,1278.0,1608.0,23.0,635.0,1849.0,492.0,25.0,12.0,2810.0,3.8,5.6,1989.0,3.1,3.2,2006.0,2012.0,0.353,0.0,0.319,0.215,0.062,0.364,0.483,0.10300000000000001,0.306,0.297,0.604,0.054000000000000006,Manteca,37.797428000000004,-121.216053,75314.0,17.757
230,469.0,312.3,0.6,48.9,51.1,56100.0,762.0,358.0,12.0,122.0,916.0,257.0,19.0,10.0,870.0,3.7,5.0,1970.0,2.2,3.5,1995.0,2008.0,0.0,0.0,0.7,0.0,0.0,0.0,0.087,0.087,0.217,0.195,0.0,0.345,Maricopa,35.058858,-119.40095,1127.0,1.5019999999999998
231,8190.0,922.0,13.8,57.3,42.7,431800.0,1271.0,1506.0,20.0,877.0,2100.0,466.0,25.0,11.0,2764.0,3.4,4.7,1975.0,2.6,2.7,2000.0,2012.0,0.512,0.135,0.184,0.479,0.087,0.327,0.516,0.214,0.146,0.027999999999999997,0.797,0.077,Marina,36.684403,-121.802172,21227.0,9.763
232,15364.0,1216.4,2.6,33.8,66.2,505400.0,1626.0,2059.0,21.0,713.0,2377.0,540.0,23.0,10.0,3800.0,3.2,5.6,1975.0,2.5,2.5,2000.0,2012.0,0.205,0.205,0.215,0.419,0.258,0.18100000000000002,0.29,0.5670000000000001,0.053,0.07400000000000001,0.87,0.0,Martinez,38.019366999999995,-122.134133,37902.0,13.135
233,4781.0,1380.3,-8.0,64.3,35.7,161600.0,876.0,1178.0,21.0,422.0,1406.0,392.0,23.0,11.0,1315.0,3.4,4.6,1964.0,2.9,2.5,2001.0,2013.0,0.0,0.146,0.7070000000000001,0.10099999999999999,0.0,0.08,0.214,0.08,0.546,0.615,0.073,0.087,Marysville,39.145725,-121.591356,12225.0,3.585
234,6823.0,5789.9,0.8,76.4,23.6,350800.0,1000.0,1501.0,23.0,1371.0,1784.0,365.0,29.0,10.0,3045.0,4.7,3.8,1952.0,4.7,4.0,1997.0,2010.0,0.12300000000000001,0.07200000000000001,0.253,0.217,0.006999999999999999,0.5920000000000001,0.6609999999999999,0.113,0.19,0.365,0.493,0.08,Maywood,33.986681,-118.18535,27700.0,1.178
235,3086.0,1156.6,15.0,42.1,57.9,149200.0,876.0,947.0,23.0,537.0,1075.0,281.0,30.0,10.0,1300.0,4.5,5.0,1987.0,4.1,4.5,2001.0,2012.0,0.0,0.0,0.0,0.0,0.0,0.0,0.18600000000000003,0.0,0.532,0.461,0.019,0.358,McFarland,35.678011,-119.229275,13930.0,2.668
236,2784.0,844.7,8.9,64.5,35.5,139000.0,760.0,905.0,24.0,534.0,1060.0,268.0,32.0,10.0,969.0,4.7,4.8,1985.0,4.3,4.1,2001.0,2011.0,0.0,0.0,0.20199999999999999,0.0,0.0,0.069,0.09300000000000001,0.0,0.239,0.456,0.027999999999999997,0.33299999999999996,Mendota,36.753561,-120.38155800000001,11396.0,3.281
237,30383.0,653.8,0.4,25.7,74.3,278300.0,1423.0,1460.0,24.0,538.0,1778.0,431.0,26.0,14.0,2855.0,3.7,5.9,1996.0,3.1,2.9,2008.0,2012.0,0.27899999999999997,0.63,0.0,0.27399999999999997,0.175,0.3,0.436,0.217,0.214,0.19899999999999998,0.674,0.053,Menifee,33.678333,-117.166944,86820.0,46.607
238,12760.0,1305.3,-2.5,41.7,58.3,1764600.0,2111.0,3145.0,21.0,1622.0,4001.0,1028.0,25.0,10.0,10001.0,3.4,5.2,1959.0,2.9,2.5,2001.0,2012.0,0.284,0.428,0.0,0.131,0.6920000000000001,0.096,0.08900000000000001,0.856,0.011000000000000001,0.066,0.769,0.009000000000000001,MenloPark,37.453828,-122.18218600000002,33661.0,17.415
239,27080.0,1165.9,-1.3,60.3,39.7,185700.0,908.0,1101.0,19.0,481.0,1350.0,428.0,22.0,11.0,1570.0,3.9,5.3,1982.0,3.0,3.3,2004.0,2012.0,0.049,0.08900000000000001,0.111,0.057999999999999996,0.008,0.20199999999999999,0.14400000000000002,0.021,0.46,0.45,0.198,0.175,Merced,37.302164000000005,-120.48296699999999,82008.0,23.316
240,6452.0,1354.6,-1.3,27.7,72.3,1242100.0,2209.0,3232.0,19.0,942.0,4001.0,956.0,22.0,11.0,10001.0,3.0,5.7,1961.0,2.4,2.1,2000.0,2011.0,0.196,0.371,0.0,0.114,0.745,0.0,0.166,0.742,0.034,0.086,0.754,0.0,MillValley,37.906036,-122.544975,14392.0,4.847
241,8771.0,2699.1,4.8,36.1,63.9,1131500.0,2101.0,2515.0,22.0,1476.0,3487.0,696.0,27.0,12.0,6395.0,3.3,5.4,1960.0,2.8,2.6,1999.0,2012.0,0.324,0.635,0.0,0.415,0.536,0.013999999999999999,0.094,0.873,0.026000000000000002,0.034,0.772,0.038,Millbrae,37.598546999999996,-122.387194,22738.0,3.259
242,22778.0,1677.2,15.0,35.6,64.4,704300.0,2099.0,2372.0,21.0,1055.0,2860.0,652.0,24.0,10.0,5478.0,3.8,5.1,1982.0,3.4,3.4,2003.0,2012.0,0.171,0.713,0.0,0.14300000000000002,0.622,0.066,0.152,0.78,0.023,0.051,0.8320000000000001,0.047,Milpitas,37.428272,-121.906625,75498.0,13.640999999999998
243,34994.0,1977.3,2.2,22.5,77.5,640800.0,2123.0,2231.0,22.0,874.0,2596.0,525.0,25.0,10.0,3967.0,3.3,6.1,1980.0,2.8,2.8,2001.0,2012.0,0.361,0.616,0.0,0.263,0.68,0.033,0.105,0.85,0.005,0.022000000000000002,0.919,0.003,MissionViejo,33.600021999999996,-117.671994,96535.0,18.123
244,75155.0,1680.5,0.1,45.4,54.6,236200.0,1070.0,1280.0,20.0,508.0,1544.0,471.0,24.0,11.0,1755.0,3.6,5.3,1977.0,2.9,2.9,2004.0,2012.0,0.1,0.105,0.157,0.168,0.036000000000000004,0.414,0.42100000000000004,0.049,0.385,0.531,0.3,0.07400000000000001,Modesto,37.639097,-120.99687800000001,210166.0,37.092
245,13727.0,1009.1,-5.2,53.8,46.2,606000.0,1374.0,1977.0,23.0,1193.0,2473.0,589.0,26.0,10.0,4591.0,3.5,5.1,1961.0,2.8,2.9,2001.0,2012.0,0.36700000000000005,0.247,0.265,0.5670000000000001,0.085,0.221,0.521,0.42,0.023,0.166,0.732,0.006999999999999999,Monrovia,34.144428000000005,-118.001947,37138.0,13.714
246,594.0,334.1,-6.2,42.7,57.3,119300.0,797.0,954.0,20.0,300.0,1080.0,333.0,22.0,16.0,907.0,3.3,4.4,1974.0,2.4,3.0,2000.0,2011.0,0.0,,0.0,0.0,,0.217,0.17800000000000002,,0.545,0.377,,0.159,Montague,41.728196999999994,-122.5278,1385.0,1.793
247,10941.0,1983.1,10.4,44.6,55.4,304200.0,1234.0,1312.0,21.0,902.0,1643.0,379.0,27.0,10.0,1978.0,4.3,5.2,1970.0,3.8,3.6,2002.0,2012.0,0.371,0.23199999999999998,0.066,0.272,0.13,0.325,0.636,0.159,0.109,0.287,0.556,0.059000000000000004,Montclair,34.077511,-117.689778,38613.0,5.517
248,1389.0,849.6,7.9,8.8,91.2,2000001.0,2216.0,3414.0,20.0,979.0,4001.0,1066.0,27.0,11.0,10001.0,3.0,7.8,1966.0,2.7,2.0,1994.0,2011.0,0.0,0.0,,0.392,0.608,,0.0,1.0,,0.098,0.608,,MonteSereno,37.236333,-121.99245800000001,3551.0,1.615
249,21258.0,2551.2,7.5,55.7,44.3,441500.0,1211.0,1420.0,23.0,1303.0,1972.0,451.0,28.0,12.0,3679.0,3.9,4.5,1961.0,3.2,3.2,1995.0,2011.0,0.272,0.0,0.179,0.48,0.024,0.308,0.6,0.23399999999999999,0.08199999999999999,0.301,0.563,0.036000000000000004,Montebello,34.016506,-118.113753,63468.0,8.373
250,13371.0,1541.5,-1.6,63.2,36.8,696200.0,1625.0,1885.0,22.0,1141.0,2663.0,626.0,28.0,11.0,4258.0,3.0,4.4,1969.0,2.2,2.2,2002.0,2012.0,0.34,0.48,0.098,0.568,0.22899999999999998,0.13699999999999998,0.258,0.693,0.03,0.098,0.846,0.008,Monterey,36.600239,-121.894675,28671.0,11.764
251,21336.0,2781.9,2.3,46.3,53.7,566700.0,1275.0,1484.0,20.0,1388.0,2311.0,477.0,31.0,10.0,3996.0,3.6,4.6,1962.0,3.1,3.1,1996.0,2011.0,0.226,0.077,0.405,0.40399999999999997,0.033,0.289,0.629,0.192,0.084,0.124,0.672,0.022000000000000002,MontereyPark,34.062511,-118.122847,61056.0,7.733
252,11603.0,922.4,8.1,25.1,74.9,592500.0,1832.0,2323.0,23.0,933.0,2662.0,660.0,25.0,10.0,4438.0,3.6,6.3,1986.0,3.2,3.2,2003.0,2012.0,0.0,0.389,0.33299999999999996,0.332,0.406,0.053,0.257,0.655,0.011000000000000001,0.057,0.841,0.021,Moorpark,34.144897,-118.26874199999999,36060.0,12.799
253,54005.0,1053.2,-2.8,39.5,60.5,260600.0,1342.0,1439.0,23.0,668.0,1584.0,432.0,26.0,10.0,2361.0,4.5,5.7,1987.0,4.0,4.0,2004.0,2012.0,0.302,0.098,0.198,0.45399999999999996,0.024,0.318,0.63,0.109,0.17300000000000001,0.287,0.589,0.062,MorenoValley,33.942467,-117.229672,203691.0,51.475
254,14516.0,1138.6,12.9,27.8,72.2,729900.0,1699.0,2597.0,23.0,931.0,3098.0,768.0,26.0,10.0,5794.0,3.4,6.2,1986.0,3.0,3.1,2005.0,2012.0,0.722,0.06,0.152,0.301,0.268,0.305,0.34,0.526,0.07400000000000001,0.139,0.7340000000000001,0.027000000000000003,MorganHill,37.1305,-121.654389,43136.0,12.882
255,6206.0,1170.3,-1.8,42.8,57.2,535300.0,1387.0,1038.0,20.0,1078.0,2097.0,488.0,29.0,10.0,3151.0,2.9,4.6,1975.0,2.2,2.0,2003.0,2012.0,0.218,0.034,0.687,0.309,0.109,0.239,0.53,0.401,0.01,0.066,0.8340000000000001,0.025,MorroBay,35.365808,-120.8499,10568.0,10.322
256,2034.0,540.1,7.3,52.6,47.4,243500.0,930.0,1153.0,28.0,699.0,1309.0,346.0,32.0,10.0,2029.0,2.7,4.8,1974.0,2.2,1.6,2002.0,2012.0,0.0,0.0,0.0,0.0,0.0,0.0,0.086,0.0,0.6409999999999999,0.602,0.29600000000000004,0.066,MountShasta,41.410806,-122.194575,3281.0,3.77
257,35256.0,2939.6,4.1,58.0,42.0,1079900.0,2103.0,2588.0,20.0,1047.0,3404.0,819.0,23.0,12.0,6998.0,3.1,4.2,1972.0,2.5,2.3,2003.0,2012.0,0.251,0.6409999999999999,0.009000000000000001,0.203,0.696,0.021,0.052000000000000005,0.884,0.01,0.027999999999999997,0.89,0.025,MountainView,37.386053000000004,-122.08385,80076.0,12.273
258,33832.0,1007.5,-4.1,33.5,66.5,367400.0,1620.0,1992.0,24.0,624.0,2213.0,606.0,26.0,12.0,4069.0,3.9,6.7,2000.0,3.4,3.2,2007.0,2013.0,0.512,0.35,0.138,0.5760000000000001,0.059000000000000004,0.163,0.54,0.311,0.081,0.091,0.8370000000000001,0.02,Murrieta,33.553914,-117.213922,110043.0,33.613
259,30296.0,1696.8,0.5,43.3,56.7,536800.0,1546.0,1820.0,22.0,1043.0,2301.0,584.0,24.0,11.0,3818.0,3.5,5.3,1974.0,2.6,3.0,2002.0,2012.0,0.28800000000000003,0.135,0.23800000000000002,0.361,0.23800000000000002,0.168,0.40700000000000003,0.501,0.027999999999999997,0.095,0.775,0.055999999999999994,Napa,38.297539,-122.286864,79722.0,18.147
260,17349.0,2383.4,3.5,67.9,32.1,345400.0,1086.0,1430.0,21.0,1084.0,1768.0,337.0,27.0,10.0,2216.0,4.2,4.1,1970.0,3.8,3.3,1999.0,2011.0,0.155,0.017,0.469,0.254,0.081,0.41,0.5670000000000001,0.152,0.14300000000000002,0.21899999999999997,0.562,0.11199999999999999,NationalCity,32.678108,-117.099197,60715.0,9.116
261,2992.0,97.1,3.4,45.5,54.5,83300.0,582.0,597.0,18.0,262.0,1068.0,445.0,22.0,15.0,813.0,3.4,4.8,1973.0,2.6,2.1,1999.0,2011.0,0.0,0.0,0.0,0.0,0.0,0.027999999999999997,0.0,0.009000000000000001,0.252,0.21899999999999997,0.0,0.19899999999999998,Needles,34.848061,-114.61413300000001,4984.0,31.275
262,1375.0,628.4,-8.9,39.2,60.8,357700.0,933.0,741.0,17.0,857.0,1877.0,464.0,28.0,10.0,2266.0,2.7,5.1,1964.0,2.1,2.1,1997.0,2012.0,0.0,0.0,0.0,0.0,0.0,0.722,0.368,0.077,0.23199999999999998,0.21100000000000002,0.38,0.257,NevadaCity,39.261561,-121.016058,3112.0,2.192
263,13769.0,992.4,2.6,30.8,69.2,607200.0,1914.0,2130.0,21.0,1100.0,2516.0,502.0,24.0,10.0,4376.0,3.8,5.2,1973.0,3.3,3.5,2001.0,2012.0,0.0,0.0,0.0,0.24100000000000002,0.505,0.013999999999999999,0.28,0.703,0.008,0.068,0.861,0.013999999999999999,Newark,37.529658000000005,-122.04023899999999,45554.0,13.898
264,3289.0,1632.7,-2.0,37.6,62.4,171000.0,1019.0,1196.0,24.0,460.0,1283.0,437.0,24.0,13.0,1715.0,4.0,5.4,1992.0,3.3,3.9,2005.0,2012.0,0.0,0.0,0.0,0.0,0.0,0.0,0.292,0.0,0.414,0.579,0.13,0.29100000000000004,Newman,37.313828,-121.02076100000001,10951.0,2.102
265,44678.0,1878.8,1.1,43.0,57.0,1695700.0,2118.0,3163.0,22.0,1812.0,4001.0,1081.0,27.0,11.0,9942.0,2.9,5.4,1975.0,2.4,2.1,2003.0,2012.0,0.43700000000000006,0.505,0.052000000000000005,0.18100000000000002,0.74,0.027999999999999997,0.08199999999999999,0.855,0.019,0.045,0.8,0.024,NewportBeach,33.618911,-117.928947,86793.0,52.978
266,7313.0,530.8,-0.1,18.7,81.3,476900.0,1842.0,2052.0,23.0,818.0,2466.0,625.0,25.0,12.0,3437.0,4.1,6.8,1974.0,3.4,3.3,2002.0,2011.0,0.33299999999999996,0.0,0.0,0.0,0.0,0.34299999999999997,0.092,0.413,0.16,0.068,0.7909999999999999,0.013999999999999999,Norco,33.931125,-117.54866100000001,26711.0,14.278
267,28595.0,2945.3,1.8,37.0,63.0,375400.0,1450.0,1658.0,25.0,978.0,1896.0,393.0,28.0,10.0,2835.0,4.3,4.9,1957.0,3.9,3.7,2000.0,2011.0,0.379,0.4,0.102,0.486,0.111,0.213,0.45799999999999996,0.37200000000000005,0.081,0.142,0.7340000000000001,0.02,Norwalk,33.902236,-118.08173300000001,106404.0,9.746
268,22735.0,828.4,7.5,32.6,67.4,677500.0,1863.0,2223.0,23.0,1022.0,2805.0,687.0,26.0,13.0,5249.0,3.2,5.6,1974.0,2.4,2.7,2002.0,2012.0,0.37,0.258,0.12300000000000001,0.39,0.389,0.051,0.076,0.8109999999999999,0.03,0.077,0.8390000000000001,0.002,Novato,38.107419,-122.569703,55378.0,27.957
269,8249.0,1364.7,5.5,41.3,58.7,263800.0,1012.0,1526.0,23.0,562.0,1722.0,525.0,24.0,14.0,2347.0,3.4,5.4,1987.0,2.9,2.7,2005.0,2012.0,1.0,0.0,0.0,0.0,0.031,0.273,0.33,0.046,0.373,0.636,0.17300000000000001,0.087,Oakdale,37.766594,-120.847153,22256.0,6.095
270,169303.0,3029.1,-0.2,60.2,39.8,564500.0,1255.0,2021.0,22.0,1059.0,2480.0,630.0,26.0,12.0,4815.0,3.5,4.4,1951.0,2.7,2.5,2002.0,2011.0,0.244,0.106,0.247,0.364,0.26,0.19,0.382,0.389,0.111,0.187,0.595,0.047,Oakland,37.804364,-122.27111399999998,417442.0,78.002
271,11828.0,745.2,3.0,24.7,75.3,356000.0,1450.0,1853.0,23.0,611.0,2033.0,583.0,24.0,15.0,3622.0,3.9,6.2,1993.0,3.3,3.8,2006.0,2012.0,0.0,0.0,0.0,0.071,0.0,0.5870000000000001,0.24100000000000002,0.09300000000000001,0.31,0.226,0.6679999999999999,0.061,Oakley,37.997422,-121.712453,39950.0,16.155
272,66715.0,1617.3,3.5,44.0,56.0,423100.0,1545.0,1691.0,23.0,940.0,2126.0,532.0,27.0,12.0,2919.0,3.5,5.3,1983.0,2.7,2.9,2004.0,2012.0,0.542,0.083,0.19,0.557,0.184,0.146,0.385,0.496,0.057,0.095,0.8059999999999999,0.044000000000000004,Oceanside,33.195869,-117.37948300000001,174811.0,42.174
273,3226.0,741.9,-4.6,46.4,53.6,626800.0,1339.0,2009.0,23.0,1025.0,2440.0,579.0,30.0,10.0,4826.0,3.3,5.1,1964.0,2.7,2.4,2001.0,2011.0,0.132,0.0,0.429,0.382,0.142,0.152,0.6459999999999999,0.305,0.024,0.20800000000000002,0.777,0.0,Ojai,34.44805,-119.24288899999999,7594.0,4.401
274,52447.0,1050.3,10.5,46.5,53.5,320000.0,1353.0,1539.0,23.0,860.0,1732.0,422.0,26.0,10.0,2169.0,4.1,5.1,1976.0,3.5,3.4,2002.0,2012.0,0.22699999999999998,0.217,0.332,0.37,0.132,0.345,0.5670000000000001,0.284,0.092,0.235,0.675,0.023,Ontario,34.063344,-117.65088899999999,171041.0,50.006
275,44250.0,1745.0,-1.9,43.0,57.0,604300.0,1651.0,2087.0,22.0,1176.0,2516.0,517.0,25.0,10.0,3912.0,3.7,5.5,1972.0,3.0,3.2,2001.0,2012.0,0.47100000000000003,0.285,0.044000000000000004,0.47,0.317,0.11699999999999999,0.325,0.6,0.033,0.091,0.818,0.013999999999999999,Orange,33.787794,-117.85311100000001,140289.0,25.24
276,2407.0,1343.3,7.9,58.3,41.7,118800.0,759.0,893.0,26.0,404.0,1058.0,377.0,29.0,11.0,1169.0,4.7,5.3,1990.0,4.1,4.5,2001.0,2010.0,0.0,0.0,0.0,0.0,0.0,0.0,0.026000000000000002,0.0,0.344,0.281,0.012,0.387,OrangeCove,36.624394,-119.313731,9567.0,1.912
277,7137.0,555.3,4.9,11.6,88.4,1221800.0,2231.0,3439.0,18.0,822.0,4001.0,906.0,22.0,10.0,8786.0,3.2,7.3,1959.0,2.8,2.5,1998.0,2013.0,0.0,0.0,0.0,0.0,0.05,0.0,0.185,0.815,0.0,0.01,0.789,0.127,Orinda,37.877146999999994,-122.179689,19248.0,12.698
278,2787.0,956.4,4.8,47.3,52.7,196200.0,752.0,1042.0,22.0,622.0,1285.0,365.0,26.0,13.0,1486.0,3.6,5.0,1977.0,3.1,2.8,2002.0,2011.0,0.0,0.0,0.0,0.075,0.0,0.081,0.153,0.0,0.41600000000000004,0.222,0.032,0.41600000000000004,Orland,39.747381,-122.196375,7532.0,2.971
279,7107.0,537.9,14.7,52.2,47.8,160900.0,797.0,875.0,21.0,440.0,1156.0,349.0,25.0,12.0,1344.0,3.6,4.9,1966.0,2.6,3.0,2003.0,2012.0,0.0,0.0,0.095,0.015,0.017,0.105,0.15,0.018000000000000002,0.406,0.5,0.14,0.11199999999999999,Oroville,39.513775,-121.556358,18932.0,13.011
280,54467.0,2024.7,3.2,46.7,53.3,390000.0,1444.0,1751.0,24.0,1095.0,2090.0,486.0,28.0,10.0,3238.0,4.6,5.2,1975.0,3.8,4.2,2002.0,2012.0,0.285,0.11800000000000001,0.387,0.44,0.184,0.19,0.527,0.33399999999999996,0.066,0.131,0.7440000000000001,0.046,Oxnard,34.197506,-119.177053,206732.0,39.208
281,8425.0,2948.0,3.1,52.6,47.4,764600.0,1606.0,1718.0,19.0,1179.0,2851.0,477.0,26.0,10.0,4415.0,3.0,4.7,1957.0,2.3,2.2,1998.0,2011.0,0.3,0.41100000000000003,0.23,0.5489999999999999,0.252,0.09300000000000001,0.271,0.6609999999999999,0.038,0.166,0.69,0.0,PacificGrove,36.617736,-121.916622,15617.0,4.003
282,14685.0,1159.8,1.1,31.8,68.2,740700.0,2110.0,2469.0,22.0,1068.0,2841.0,531.0,26.0,10.0,5198.0,3.4,5.4,1965.0,2.9,2.5,1997.0,2011.0,0.053,0.7120000000000001,0.0,0.33899999999999997,0.51,0.008,0.059000000000000004,0.882,0.006,0.051,0.884,0.0,Pacifica,37.613825,-122.486919,39141.0,12.66
283,39788.0,1484.1,7.3,38.8,61.2,328300.0,1195.0,1324.0,23.0,696.0,1951.0,744.0,27.0,16.0,3309.0,2.9,4.5,1986.0,2.0,2.3,2005.0,2012.0,0.114,0.07,0.266,0.43,0.062,0.24600000000000002,0.552,0.223,0.131,0.221,0.598,0.063,PalmDesert,33.722244,-116.37445600000001,51675.0,27.014
284,37055.0,394.0,6.5,41.1,58.9,340600.0,1006.0,1151.0,23.0,742.0,1885.0,675.0,28.0,16.0,2832.0,2.9,4.4,1976.0,1.9,2.1,2005.0,2012.0,0.08800000000000001,0.14400000000000002,0.235,0.193,0.028999999999999998,0.539,0.47200000000000003,0.172,0.23399999999999999,0.28600000000000003,0.44,0.055999999999999994,PalmSprings,33.830296999999995,-116.54529199999999,47140.0,94.975
285,47965.0,452.6,3.1,36.0,64.0,229200.0,1214.0,1453.0,25.0,534.0,1610.0,528.0,27.0,12.0,3140.0,4.2,5.7,1989.0,3.6,3.6,2005.0,2012.0,0.162,0.021,0.376,0.111,0.013999999999999999,0.322,0.311,0.044000000000000004,0.365,0.34700000000000003,0.512,0.045,Palmdale,34.579433,-118.11646100000002,157358.0,106.216
286,27577.0,1155.2,-2.3,45.1,54.9,1989300.0,2379.0,2837.0,18.0,1586.0,4001.0,856.0,25.0,10.0,9422.0,3.1,5.2,1962.0,2.7,2.4,1999.0,2012.0,0.121,0.489,0.094,0.1,0.6970000000000001,0.013999999999999999,0.107,0.8140000000000001,0.015,0.071,0.789,0.032,PaloAlto,37.441883000000004,-122.143019,67082.0,25.787
287,5360.0,1122.8,1.5,14.0,86.0,1637600.0,2850.0,3157.0,20.0,1205.0,4001.0,866.0,23.0,11.0,10001.0,3.1,7.2,1960.0,2.8,3.1,1996.0,2012.0,0.0,0.0,,0.0,1.0,,0.16899999999999998,0.738,,0.0,0.877,,PalosVerdesEstates,33.800571999999995,-118.390075,13591.0,4.774
288,14947.0,3160.4,2.6,61.1,38.9,304400.0,1256.0,1394.0,24.0,946.0,1727.0,413.0,29.0,10.0,2433.0,4.4,4.4,1969.0,3.9,3.8,2002.0,2011.0,0.19399999999999998,0.0,0.401,0.418,0.044000000000000004,0.36,0.583,0.256,0.077,0.336,0.516,0.083,Paramount,33.889461,-118.159792,55020.0,4.84
289,3972.0,1737.3,13.7,56.5,43.5,131700.0,773.0,993.0,25.0,454.0,1126.0,384.0,29.0,12.0,1218.0,4.4,4.9,1992.0,3.9,4.1,2001.0,2012.0,0.0,0.0,0.0,0.0,0.0,0.14800000000000002,0.075,0.0,0.349,0.32799999999999996,0.068,0.302,Parlier,36.611616999999995,-119.527072,15051.0,2.194
290,60286.0,2623.1,1.2,56.4,43.6,689700.0,1494.0,2256.0,23.0,1150.0,2717.0,718.0,26.0,11.0,4615.0,3.4,4.4,1958.0,2.6,2.4,2001.0,2012.0,0.353,0.255,0.212,0.44299999999999995,0.332,0.096,0.285,0.615,0.035,0.153,0.6970000000000001,0.048,Pasadena,34.147785999999996,-118.144517,141231.0,23.128
291,6100.0,1024.5,-3.6,38.4,61.6,258600.0,1373.0,1481.0,24.0,601.0,1666.0,479.0,24.0,28.0,2669.0,4.1,6.3,1998.0,3.7,3.8,2006.0,2012.0,1.0,0.0,0.0,0.0,0.0,0.382,0.071,0.0,0.44,0.35200000000000004,0.479,0.057,Patterson,37.4716,-121.12965600000001,21497.0,5.954
292,17545.0,558.9,-2.0,37.4,62.6,239800.0,1306.0,1470.0,27.0,680.0,1617.0,452.0,29.0,12.0,3271.0,4.9,5.6,1997.0,4.5,4.5,2007.0,2012.0,0.222,0.153,0.431,0.08199999999999999,0.0,0.379,0.53,0.095,0.159,0.33899999999999997,0.544,0.055,Perris,33.782519,-117.228647,75011.0,31.503
293,22984.0,1598.1,1.1,33.9,66.1,556900.0,1667.0,2009.0,22.0,871.0,2365.0,575.0,25.0,11.0,3860.0,3.3,5.6,1979.0,2.7,2.7,2001.0,2012.0,0.445,0.125,0.156,0.19399999999999998,0.32,0.125,0.276,0.5660000000000001,0.059000000000000004,0.138,0.727,0.016,Petaluma,38.232417,-122.63665300000001,60210.0,14.489
294,17524.0,2112.5,2.4,33.2,66.8,380200.0,1259.0,1535.0,23.0,1038.0,1854.0,358.0,28.0,10.0,2790.0,4.4,5.1,1956.0,3.9,3.4,1996.0,2011.0,0.248,0.008,0.501,0.509,0.028999999999999998,0.18100000000000002,0.573,0.272,0.053,0.203,0.562,0.057,PicoRivera,33.983069,-118.096736,63750.0,8.882
295,3988.0,2346.3,1.6,12.5,87.5,1715700.0,2929.0,3069.0,18.0,1261.0,4001.0,1408.0,24.0,10.0,10001.0,3.2,7.7,1939.0,2.8,3.1,1996.0,2012.0,0.0,0.0,0.0,0.314,0.5489999999999999,0.13699999999999998,0.102,0.898,0.0,0.0,0.7709999999999999,0.0,Piedmont,37.824372,-122.23163600000001,11296.0,1.6780000000000002
296,7211.0,1400.2,0.7,29.8,70.2,431800.0,1666.0,1775.0,19.0,747.0,2138.0,497.0,24.0,10.0,4022.0,3.4,5.7,1969.0,2.8,2.9,1997.0,2012.0,0.0,0.7959999999999999,0.204,0.341,0.127,0.33299999999999996,0.374,0.48700000000000004,0.07400000000000001,0.07,0.8590000000000001,0.0,Pinole,38.004366999999995,-122.29885800000001,19191.0,13.575
297,5668.0,1574.8,1.5,42.1,57.9,633300.0,1431.0,1599.0,22.0,1090.0,2683.0,573.0,33.0,11.0,4184.0,2.7,4.7,1980.0,2.0,1.9,2002.0,2012.0,0.038,0.033,0.6629999999999999,0.21100000000000002,0.08,0.41200000000000003,0.47700000000000004,0.46799999999999997,0.024,0.0,0.731,0.0,PismoBeach,35.142753000000006,-120.641283,8060.0,13.476
298,22184.0,1290.7,5.0,43.9,56.1,324500.0,1517.0,1653.0,22.0,693.0,1927.0,498.0,26.0,10.0,2838.0,3.9,5.6,1981.0,3.3,3.2,2004.0,2012.0,0.52,0.159,0.215,0.32299999999999995,0.19399999999999998,0.212,0.368,0.444,0.068,0.182,0.6940000000000001,0.019,Pittsburg,38.027975,-121.884681,69449.0,19.154
299,16813.0,2542.2,-0.3,35.1,64.9,585800.0,1662.0,2127.0,23.0,1099.0,2640.0,599.0,25.0,12.0,4194.0,3.7,5.7,1975.0,3.1,3.3,2001.0,2012.0,0.385,0.17800000000000002,0.185,0.465,0.309,0.16399999999999998,0.31,0.613,0.037000000000000005,0.10400000000000001,0.7659999999999999,0.013999999999999999,Placentia,33.872236,-117.87033600000001,52294.0,6.582000000000002
300,4358.0,749.8,-4.0,41.7,58.3,298900.0,1031.0,1494.0,26.0,675.0,1829.0,540.0,31.0,13.0,2172.0,3.4,5.1,1973.0,2.5,2.6,2004.0,2012.0,0.0,0.0,1.0,0.053,0.125,0.498,0.44,0.053,0.33899999999999997,0.48,0.27899999999999997,0.16,Placerville,38.729625,-120.798547,10681.0,5.813
301,14120.0,1995.6,-1.4,39.1,60.9,633400.0,1856.0,2159.0,21.0,826.0,2507.0,563.0,24.0,10.0,4496.0,3.1,5.4,1973.0,2.6,2.4,2000.0,2012.0,0.508,0.456,0.0,0.5760000000000001,0.324,0.038,0.156,0.8079999999999999,0.028999999999999998,0.043,0.871,0.028999999999999998,PleasantHill,37.947978000000006,-122.060797,34662.0,7.072
302,29064.0,1190.1,11.6,30.3,69.7,879800.0,2140.0,2824.0,21.0,856.0,3287.0,672.0,23.0,10.0,6291.0,3.2,6.2,1982.0,2.9,2.6,2002.0,2012.0,0.10800000000000001,0.5820000000000001,0.171,0.154,0.552,0.191,0.079,0.877,0.013999999999999999,0.055,0.893,0.019,Pleasanton,37.662431,-121.874678,79341.0,24.266
303,449.0,482.4,-8.9,35.9,64.1,183300.0,1087.0,1214.0,24.0,439.0,1420.0,450.0,35.0,12.0,1762.0,3.5,5.3,1982.0,3.0,3.1,2006.0,2011.0,0.0,0.0,0.0,0.0,0.0,0.0,0.11599999999999999,0.0,0.535,0.529,0.47100000000000003,0.0,Plymouth,38.481853,-120.84465800000001,1002.0,0.944
304,253.0,187.4,12.4,55.7,44.3,363600.0,839.0,664.0,20.0,1050.0,1449.0,461.0,36.0,10.0,2486.0,3.5,4.4,1957.0,2.3,2.4,1998.0,2010.0,0.0,0.0,0.0,0.0,0.0,0.33299999999999996,0.33299999999999996,0.16699999999999998,0.222,0.5760000000000001,0.0,0.273,PointArena,38.908797,-123.693072,472.0,1.35
305,40530.0,1765.8,-0.4,47.4,52.6,344200.0,1246.0,1558.0,24.0,973.0,1792.0,455.0,28.0,10.0,2752.0,4.4,5.0,1964.0,3.8,3.8,2001.0,2012.0,0.369,0.067,0.221,0.261,0.09,0.483,0.541,0.24600000000000002,0.146,0.257,0.62,0.053,Pomona,34.055228,-117.752306,152366.0,22.964
306,7803.0,1753.2,-4.0,54.0,46.0,356500.0,1604.0,1733.0,28.0,957.0,1980.0,499.0,29.0,16.0,2560.0,4.0,4.7,1974.0,3.1,3.4,2003.0,2012.0,0.27899999999999997,0.493,0.0,0.508,0.064,0.135,0.434,0.48700000000000004,0.055999999999999994,0.04,0.8420000000000001,0.035,PortHueneme,34.180728,-119.20815800000001,22262.0,4.671
307,17967.0,1020.4,7.4,46.5,53.5,163100.0,865.0,987.0,21.0,453.0,1243.0,366.0,26.0,10.0,1252.0,4.1,5.2,1980.0,3.5,3.3,2004.0,2012.0,0.099,0.026000000000000002,0.19399999999999998,0.078,0.13,0.024,0.13,0.052000000000000005,0.397,0.486,0.11599999999999999,0.217,Porterville,36.065231,-119.01676699999999,58782.0,17.679000000000006
308,1319.0,244.0,16.3,48.7,51.3,153200.0,706.0,786.0,22.0,374.0,1316.0,437.0,29.0,14.0,1102.0,3.1,5.2,1971.0,2.2,2.2,2003.0,2009.0,0.0,0.0,0.0,0.0,0.0,0.0,0.065,0.0,0.40299999999999997,0.12300000000000001,0.07400000000000001,0.153,Portola,39.810458000000004,-120.469103,2033.0,5.407
309,16418.0,420.1,-1.8,25.6,74.4,620500.0,1487.0,2456.0,23.0,956.0,2762.0,707.0,25.0,11.0,4348.0,3.5,6.1,1978.0,3.1,3.2,2002.0,2012.0,0.15,0.425,0.212,0.428,0.183,0.149,0.408,0.38,0.039,0.11800000000000001,0.718,0.08800000000000001,Poway,32.962821999999996,-117.03586399999999,49874.0,39.165
310,25660.0,736.2,0.7,46.2,53.8,251500.0,1074.0,1425.0,21.0,569.0,1690.0,455.0,24.0,11.0,2198.0,3.5,5.1,1977.0,2.8,2.9,2005.0,2012.0,0.14800000000000002,0.013999999999999999,0.196,0.243,0.002,0.433,0.435,0.043,0.428,0.36200000000000004,0.5,0.065,RanchoCordova,38.589071999999994,-121.302728,70785.0,33.874
311,58435.0,1465.9,3.2,38.7,61.3,444200.0,1654.0,2020.0,24.0,781.0,2301.0,583.0,26.0,11.0,3669.0,3.7,5.6,1987.0,3.2,2.9,2004.0,2013.0,0.36200000000000004,0.257,0.205,0.574,0.247,0.091,0.281,0.612,0.055,0.094,0.8420000000000001,0.028999999999999998,RanchoCucamonga,34.1064,-117.593108,174573.0,39.871
312,15626.0,630.8,9.7,21.6,78.4,483100.0,1251.0,1513.0,24.0,687.0,2451.0,1038.0,31.0,19.0,5285.0,2.5,5.3,1984.0,1.9,1.9,2005.0,,0.025,0.617,0.092,0.201,0.125,0.28,0.429,0.342,0.086,0.022000000000000002,0.688,0.087,RanchoMirage,33.739744,-116.41278899999999,17975.0,
313,16815.0,1248.6,3.9,20.4,79.6,1051000.0,2391.0,2521.0,22.0,1048.0,3517.0,753.0,27.0,10.0,7089.0,3.1,6.5,1966.0,2.6,2.7,1998.0,2012.0,0.593,0.253,0.0,0.034,0.731,0.12300000000000001,0.015,0.9359999999999999,0.033,0.040999999999999995,0.8,0.005,RanchoPalosVerdes,33.744461,-118.38701699999999,42463.0,13.465
314,17814.0,1381.4,3.2,29.1,70.9,619200.0,1812.0,2609.0,25.0,832.0,2829.0,719.0,26.0,11.0,5653.0,3.3,5.6,1992.0,2.9,2.6,2004.0,2013.0,0.455,0.545,0.0,0.36200000000000004,0.526,0.022000000000000002,0.086,0.866,0.011000000000000001,0.0,0.9570000000000001,0.0,RanchoSantaMargarita,33.640856,-117.603103,49078.0,12.992
315,6128.0,810.3,4.4,56.7,43.3,158000.0,797.0,830.0,20.0,520.0,1045.0,333.0,25.0,11.0,987.0,3.3,4.9,1973.0,2.5,2.5,2003.0,2013.0,0.0,0.0,0.5710000000000001,0.10400000000000001,0.0,0.079,0.077,0.025,0.441,0.429,0.032,0.295,RedBluff,40.178489,-122.235831,14111.0,7.677
316,39321.0,659.2,1.7,47.6,52.4,245100.0,1000.0,1142.0,21.0,590.0,1573.0,505.0,25.0,13.0,1938.0,3.1,5.2,1982.0,2.4,2.5,2003.0,2013.0,0.129,0.19899999999999998,0.204,0.098,0.027000000000000003,0.28,0.349,0.021,0.47100000000000003,0.442,0.368,0.079,Redding,40.586539,-122.391675,91236.0,61.175
317,26178.0,726.5,-1.7,42.5,57.5,350900.0,1213.0,1570.0,19.0,645.0,2031.0,532.0,23.0,10.0,2739.0,3.5,5.3,1974.0,2.9,2.8,2001.0,2012.0,0.272,0.0,0.5720000000000001,0.392,0.065,0.295,0.5760000000000001,0.174,0.142,0.141,0.667,0.062,Redlands,34.055569,-117.18253899999999,70765.0,36.427
318,29929.0,4828.5,-2.2,49.7,50.3,817300.0,1878.0,2749.0,23.0,996.0,3159.0,633.0,26.0,10.0,5882.0,3.2,4.9,1971.0,2.6,2.3,2002.0,2012.0,0.292,0.602,0.045,0.38,0.521,0.053,0.10800000000000001,0.815,0.019,0.028999999999999998,0.903,0.023,RedondoBeach,33.849183000000004,-118.38840800000001,67950.0,6.207999999999998
319,30898.0,1587.2,5.9,49.1,50.9,1016700.0,1956.0,2729.0,23.0,1446.0,3346.0,735.0,26.0,12.0,6170.0,3.5,4.7,1964.0,2.8,2.8,2002.0,2012.0,0.493,0.312,0.042,0.301,0.612,0.02,0.10300000000000001,0.8270000000000001,0.016,0.034,0.851,0.027999999999999997,RedwoodCity,37.485214,-122.236356,84368.0,34.625
320,7653.0,1420.3,11.4,38.1,61.9,174100.0,924.0,1009.0,21.0,544.0,1375.0,437.0,25.0,12.0,1599.0,3.9,5.4,1979.0,3.2,3.7,2000.0,2012.0,0.0,0.0,0.436,0.035,0.07400000000000001,0.40299999999999997,0.266,0.019,0.441,0.43700000000000006,0.11,0.278,Reedley,36.596339,-119.45040300000001,25419.0,5.1560000000000015
321,27338.0,1223.6,0.5,36.5,63.5,260200.0,1147.0,1402.0,24.0,733.0,1594.0,448.0,28.0,12.0,2154.0,4.4,5.5,1981.0,4.0,3.9,2003.0,2012.0,0.038,0.158,0.636,0.09,0.0,0.5720000000000001,0.539,0.083,0.24100000000000002,0.34600000000000003,0.514,0.043,Rialto,34.1064,-117.370325,102708.0,22.365
322,39534.0,1315.5,0.5,49.7,50.3,371900.0,1329.0,1592.0,23.0,871.0,1994.0,504.0,28.0,10.0,3833.0,3.7,4.9,1965.0,2.9,3.0,2001.0,2012.0,0.316,0.10800000000000001,0.28300000000000003,0.35700000000000004,0.212,0.185,0.39299999999999996,0.35100000000000003,0.111,0.254,0.57,0.043,Richmond,37.935758,-122.34775,108853.0,52.48
323,12534.0,603.6,5.2,37.5,62.5,169500.0,865.0,975.0,15.0,310.0,1352.0,395.0,18.0,10.0,1549.0,3.4,5.4,1979.0,2.6,2.5,2002.0,2013.0,0.0,0.05,0.0,0.045,0.09699999999999999,0.13699999999999998,0.133,0.019,0.33799999999999997,0.307,0.251,0.27699999999999997,Ridgecrest,35.622456,-117.670897,28728.0,21.417
324,1610.0,705.8,11.7,39.2,60.8,198700.0,766.0,1162.0,27.0,520.0,1311.0,361.0,31.0,13.0,1286.0,3.4,4.8,1958.0,2.6,2.1,2004.0,2010.0,0.0,0.0,0.0,0.0,0.0,0.11199999999999999,0.198,0.0,0.385,0.366,0.261,0.19699999999999998,RioDell,40.4993,-124.10643600000002,3385.0,2.418
325,4395.0,662.3,13.0,23.0,77.0,269200.0,1349.0,1057.0,22.0,501.0,1603.0,442.0,27.0,14.0,2694.0,2.5,5.4,2001.0,2.0,2.3,2006.0,2012.0,0.0,0.0,0.0,0.28600000000000003,0.0,0.532,0.5489999999999999,0.22399999999999998,0.13699999999999998,0.439,0.47100000000000003,0.0,RioVista,38.15575,-121.691344,8350.0,7.0939999999999985
326,5320.0,1002.9,3.7,29.7,70.3,381300.0,1328.0,1821.0,20.0,607.0,2167.0,514.0,22.0,10.0,3109.0,3.4,6.2,1990.0,2.9,3.1,2003.0,,0.0,0.0,0.0,0.07200000000000001,0.17,0.17600000000000002,0.248,0.168,0.353,0.321,0.621,0.0,Ripon,37.739453000000005,-121.13541399999998,15173.0,5.495
327,7449.0,1820.3,5.4,32.4,67.6,247200.0,1111.0,1275.0,20.0,584.0,1518.0,410.0,23.0,10.0,2327.0,3.9,5.6,1994.0,3.3,3.4,2005.0,,0.409,0.0,0.0,0.027000000000000003,0.0,0.317,0.2,0.03,0.603,0.5489999999999999,0.253,0.08199999999999999,Riverbank,37.736039,-120.93548899999999,24047.0,4.1160000000000005
328,97018.0,1195.1,-1.4,45.8,54.2,319200.0,1249.0,1556.0,22.0,766.0,1805.0,465.0,25.0,10.0,2359.0,4.1,5.3,1975.0,3.5,3.3,2003.0,2012.0,0.244,0.073,0.295,0.38799999999999996,0.063,0.358,0.575,0.205,0.14400000000000002,0.257,0.637,0.048,Riverside,33.95335,-117.396156,321570.0,81.444
329,22496.0,1151.0,2.2,33.8,66.2,421700.0,1468.0,2084.0,22.0,610.0,2351.0,628.0,24.0,12.0,4560.0,3.4,6.1,1996.0,3.0,2.5,2006.0,2013.0,0.271,0.42100000000000004,0.11699999999999999,0.488,0.107,0.158,0.489,0.35700000000000004,0.09,0.132,0.8220000000000001,0.012,Rocklin,38.790733,-121.23578300000001,61697.0,19.594
330,16550.0,2363.2,-0.0,48.4,51.6,377200.0,1539.0,1590.0,23.0,755.0,1901.0,598.0,26.0,13.0,2836.0,3.3,4.9,1980.0,2.6,2.6,2002.0,2012.0,0.451,0.07200000000000001,0.33299999999999996,0.528,0.226,0.14400000000000002,0.428,0.491,0.053,0.06,0.838,0.021,RohnertPark,38.339636,-122.701097,42305.0,7.007999999999999
331,3192.0,894.3,3.0,7.5,92.5,1096400.0,2945.0,3145.0,24.0,1052.0,3994.0,881.0,28.0,12.0,8293.0,3.2,6.8,1967.0,2.7,2.7,2000.0,2011.0,,0.0,,,0.556,,,0.836,,,0.816,,RollingHillsEstates,33.787794,-118.35812800000001,8229.0,3.613
332,15525.0,3007.4,4.9,50.5,49.5,489700.0,1233.0,1256.0,22.0,1397.0,2030.0,449.0,33.0,10.0,3570.0,4.1,4.4,1959.0,3.6,3.7,1998.0,2010.0,0.311,0.0,0.256,0.364,0.028999999999999998,0.26899999999999996,0.626,0.177,0.085,0.33399999999999996,0.473,0.051,Rosemead,34.080564,-118.072847,54615.0,5.176
333,49983.0,1184.1,4.7,35.3,64.7,386300.0,1441.0,1794.0,21.0,599.0,2110.0,576.0,23.0,11.0,3652.0,3.3,5.8,1994.0,2.8,2.5,2006.0,2013.0,0.188,0.26899999999999996,0.253,0.401,0.133,0.33399999999999996,0.461,0.314,0.154,0.139,0.782,0.004,Roseville,38.752122,-121.28800600000001,130705.0,36.223
334,194917.0,1990.5,2.1,52.7,47.3,287600.0,1114.0,1349.0,21.0,623.0,1707.0,471.0,24.0,10.0,2292.0,3.6,5.0,1974.0,2.7,2.6,2004.0,2012.0,0.183,0.054000000000000006,0.228,0.253,0.069,0.337,0.465,0.158,0.24,0.402,0.41,0.07,Sacramento,38.581571999999994,-121.4944,489650.0,100.105
335,42253.0,1789.6,-0.9,55.5,44.5,342100.0,1232.0,1568.0,23.0,945.0,1887.0,441.0,27.0,10.0,2791.0,4.5,4.8,1975.0,3.7,3.9,2002.0,2012.0,0.17300000000000001,0.095,0.315,0.414,0.07200000000000001,0.294,0.607,0.184,0.122,0.21,0.6509999999999999,0.065,Salinas,36.677735999999996,-121.6555,156811.0,23.217
336,63023.0,1024.5,-3.6,53.2,46.8,202100.0,987.0,1123.0,22.0,595.0,1405.0,400.0,27.0,12.0,1504.0,4.2,4.8,1969.0,3.6,3.5,2003.0,2012.0,0.10400000000000001,0.037000000000000005,0.26899999999999996,0.122,0.013999999999999999,0.39799999999999996,0.40399999999999997,0.047,0.382,0.42700000000000005,0.382,0.078,SanBernardino,34.108344,-117.28976399999999,215252.0,59.645
337,15440.0,2827.2,0.5,44.0,56.0,754700.0,1999.0,2120.0,22.0,1227.0,2826.0,499.0,27.0,10.0,3960.0,3.5,4.8,1960.0,2.9,2.7,1998.0,2012.0,0.385,0.486,0.053,0.228,0.685,0.07400000000000001,0.13,0.8270000000000001,0.011000000000000001,0.027999999999999997,0.838,0.054000000000000006,SanBruno,37.630489000000004,-122.411083,43105.0,5.478
338,11894.0,2152.3,-1.0,28.6,71.4,1240800.0,2043.0,3115.0,20.0,1099.0,3904.0,821.0,24.0,10.0,8310.0,3.2,5.7,1959.0,2.8,2.3,2000.0,2011.0,0.245,0.565,0.12,0.445,0.531,0.015,0.081,0.835,0.013999999999999999,0.053,0.8640000000000001,0.0,SanCarlos,37.507158000000004,-122.260522,29954.0,5.541
339,27863.0,1517.9,7.3,34.3,65.7,849300.0,1775.0,2626.0,22.0,1086.0,3257.0,768.0,26.0,11.0,5812.0,3.2,5.6,1981.0,2.7,2.5,2003.0,2012.0,0.341,0.35700000000000004,0.18600000000000003,0.555,0.306,0.087,0.12,0.813,0.025,0.063,0.828,0.016,SanClemente,33.426972,-117.61199199999999,65226.0,19.468
340,533973.0,1642.0,3.5,53.2,46.8,523600.0,1503.0,1925.0,22.0,991.0,2377.0,558.0,26.0,10.0,3616.0,3.5,4.6,1976.0,2.8,2.7,2002.0,2012.0,0.306,0.215,0.22899999999999998,0.41100000000000003,0.27,0.215,0.316,0.5589999999999999,0.055,0.135,0.732,0.036000000000000004,SanDiego,32.715328,-117.157256,1390970.0,372.4
341,12347.0,821.1,-1.3,28.2,71.8,513300.0,1610.0,1890.0,23.0,835.0,2336.0,607.0,26.0,14.0,3702.0,3.5,5.9,1975.0,3.0,2.6,1999.0,2012.0,0.57,0.27,0.128,0.36,0.24600000000000002,0.215,0.335,0.573,0.025,0.07400000000000001,0.8,0.024,SanDimas,34.106675,-117.806725,34334.0,15.427
342,6596.0,2778.4,4.8,45.9,54.1,370300.0,1245.0,1641.0,24.0,989.0,1866.0,403.0,28.0,12.0,3262.0,4.5,5.0,1957.0,4.0,3.8,1998.0,2009.0,0.23399999999999999,0.0,0.285,0.285,0.0,0.585,0.47700000000000004,0.341,0.182,0.298,0.638,0.0,SanFernando,34.281946999999995,-118.43897199999999,24581.0,2.374
343,390376.0,8324.6,3.6,62.7,37.3,927400.0,1709.0,2435.0,21.0,1237.0,3332.0,615.0,26.0,10.0,6019.0,3.3,4.1,1942.0,2.7,2.1,2001.0,2011.0,0.207,0.316,0.114,0.193,0.5720000000000001,0.075,0.161,0.662,0.059000000000000004,0.11199999999999999,0.6709999999999999,0.06,SanFrancisco,37.774931,-122.419417,864263.0,231.89
344,13282.0,3204.7,0.3,54.8,45.2,628300.0,1333.0,1679.0,22.0,1557.0,2323.0,579.0,29.0,11.0,4569.0,3.8,4.6,1958.0,3.4,3.1,1999.0,2011.0,0.312,0.28600000000000003,0.174,0.45399999999999996,0.062,0.426,0.601,0.289,0.044000000000000004,0.177,0.58,0.021,SanGabriel,34.096111,-118.105833,40315.0,4.146
